[{"zip_code":"20535","street":"Bei der Hammer Kirche 10","school_type_entity":"Grundschule","school_type":"Grundschule","phone_number":"+49 40 87 88 902-10","old_slug":null,"official_id":"3201","name":"Katholische Schule Hammer Kirche","lon":10.054931,"lat":53.556728,"homepage_url":null,"federal_state_code":"HH","fax_number":"+49 40 87 88 902-29","email_address":null,"city":"Hamburg"},{"zip_code":"20099","street":"Schmilinskystraße 70","school_type_entity":"Stadtteilschule","school_type":"Stadtteilschule","phone_number":"+49 40 87 88 901-10","old_slug":null,"official_id":"3202","name":"Domschule St. Marien (Stadtteilschule)","lon":10.014614,"lat":53.557881,"homepage_url":null,"federal_state_code":"HH","fax_number":"+49 40 87 88 901-29","email_address":null,"city":"Hamburg"},{"zip_code":"22111","street":"Öjendorfer Weg 14","school_type_entity":"Stadtteilschule","school_type":"Stadtteilschule","phone_number":"+49 40 87 88 904-10","old_slug":null,"official_id":"3203","name":"Katholische Schule St. Paulus","lon":10.107749,"lat":53.540571,"homepage_url":null,"federal_state_code":"HH","fax_number":"+49 40 87 88 904-29","email_address":null,"city":"Hamburg"},{"zip_code":"22767","street":"Dohrnweg 6","school_type_entity":"Stadtteilschule","school_type":"Stadtteilschule","phone_number":"+49 40 70 70 783-10","old_slug":null,"official_id":"3204","name":"Katholische Schule Altona","lon":9.956165,"lat":53.559409,"homepage_url":null,"federal_state_code":"HH","fax_number":"+49 40 70 70 783-29","email_address":null,"city":"Hamburg"},{"zip_code":"22763","street":"Eulenstraße 68","school_type_entity":"Grundschule","school_type":"Grundschule","phone_number":"+49 40 70 70 782-10","old_slug":null,"official_id":"3205","name":"Katholische Schule St. Marien - Eulenstraße","lon":9.924064,"lat":53.551142,"homepage_url":null,"federal_state_code":"HH","fax_number":"+49 40 70 70 782-29","email_address":null,"city":"Hamburg"},{"zip_code":"22587","street":"Mörikestraße 16","school_type_entity":"Grundschule","school_type":"Grundschule","phone_number":"+49 40 70 70 781-10","old_slug":null,"official_id":"3206","name":"Katholische Schule Blankenese","lon":9.822509,"lat":53.561828,"homepage_url":null,"federal_state_code":"HH","fax_number":"+49 40 70 70 781-29","email_address":null,"city":"Hamburg"},{"zip_code":"20255","street":"Am Weiher 29","school_type_entity":"Grundschule","school_type":"Grundschule","phone_number":"+49 40 70 70 784-10","old_slug":null,"official_id":"3207","name":"Katholische Schule Am Weiher - St. Bonifatius","lon":9.957578,"lat":53.577956,"homepage_url":null,"federal_state_code":"HH","fax_number":"+49 40 70 70 784-29","email_address":null,"city":"Hamburg"},{"zip_code":"20149","street":"Hochallee 9","school_type_entity":"Grundschule","school_type":"Grundschule","phone_number":"+49 40 87 87 915-10","old_slug":null,"official_id":"3208","name":"Katholische Schule Hochallee","lon":9.985793,"lat":53.573465,"homepage_url":null,"federal_state_code":"HH","fax_number":"+49 40 87 87 915-29","email_address":null,"city":"Hamburg"},{"zip_code":"22083","street":"Elsastraße 46","school_type_entity":"Grundschule","school_type":"Grundschule","phone_number":"+49 40 87 87 918-10","old_slug":null,"official_id":"3209","name":"Katholische Sophienschule","lon":10.034378,"lat":53.579224,"homepage_url":null,"federal_state_code":"HH","fax_number":"+49 40 87 87 918-29","email_address":null,"city":"Hamburg"},{"zip_code":"22305","street":"Lämmersieth 38","school_type_entity":"Stadtteilschule","school_type":"Stadtteilschule","phone_number":"+49 40 80 79 25560","old_slug":null,"official_id":"3210","name":"Franz-von-Assisi-Schule","lon":10.054826,"lat":53.585269,"homepage_url":null,"federal_state_code":"HH","fax_number":"+49 40 80 79 25589","email_address":null,"city":"Hamburg"},{"zip_code":"22299","street":"Alsterdorfer Straße 71","school_type_entity":"Grundschule","school_type":"Grundschule","phone_number":"+49 40 87 87 916-10","old_slug":null,"official_id":"3211","name":"Katholische Schule St. Antonius","lon":9.996569,"lat":53.59872,"homepage_url":null,"federal_state_code":"HH","fax_number":"+49 40 87 87 916-29","email_address":null,"city":"Hamburg"},{"zip_code":"22415","street":"Eberhofweg 75","school_type_entity":"Grundschule","school_type":"Grundschule","phone_number":"+49 40 87 87 917-10","old_slug":null,"official_id":"3212","name":"Katharina-von-Siena-Schule","lon":10.014873,"lat":53.651919,"homepage_url":null,"federal_state_code":"HH","fax_number":"+49 40 87 87 917-29","email_address":null,"city":"Hamburg"},{"zip_code":"22159","street":"Rahlstedter Weg 15","school_type_entity":"Grundschule","school_type":"Grundschule","phone_number":"+49 40 53 30 43-10","old_slug":null,"official_id":"3213","name":"Katholische Schule Farmsen","lon":10.12183,"lat":53.606716,"homepage_url":null,"federal_state_code":"HH","fax_number":"+49 40 53 30 43-29","email_address":null,"city":"Hamburg"},{"zip_code":"22041","street":"Böhmestraße 3","school_type_entity":"Grundschule","school_type":"Grundschule","phone_number":"+49 40 87 88 903-10","old_slug":null,"official_id":"3214","name":"Katholische Schule St. Joseph - Wandsbek","lon":10.076326,"lat":53.573872,"homepage_url":null,"federal_state_code":"HH","fax_number":"+49 40 87 88 903-29","email_address":null,"city":"Hamburg"},{"zip_code":"21029","street":"Chrysanderstraße 40","school_type_entity":"Grundschule","school_type":"Grundschule","phone_number":"+49 40 88 14 107-10","old_slug":null,"official_id":"3215","name":"Katholische Schule Bergedorf","lon":10.215631,"lat":53.49182,"homepage_url":null,"federal_state_code":"HH","fax_number":"+49 40 88 14 107-29","email_address":null,"city":"Hamburg"},{"zip_code":"21073","street":"Reeseberg 8","school_type_entity":"Stadtteilschule","school_type":"Stadtteilschule","phone_number":"+49 40 881 41 08-10","old_slug":null,"official_id":"3216","name":"Katholische Schule Harburg","lon":9.988358,"lat":53.449812,"homepage_url":null,"federal_state_code":"HH","fax_number":"+49 40 881 41 08-29","email_address":null,"city":"Hamburg"},{"zip_code":"21107","street":"Bonifatiusstraße 2","school_type_entity":"Stadtteilschule","school_type":"Stadtteilschule","phone_number":"+49 40 730 87 77-10","old_slug":"21107-katholische-bonifatiusschule","official_id":"3217","name":"Katholische Bonifatiusschule","lon":9.98662,"lat":53.504744,"homepage_url":"http://www.bonifatiusschule.org/","federal_state_code":"HH","fax_number":"+49 40 730 87 77-29","email_address":"schule@bonifatiusschule.de","city":"Hamburg"},{"zip_code":"22337","street":"Alsterdorfer Straße 506","school_type_entity":"Sonderschule","school_type":"Sonderschule","phone_number":"+49 40 5 07 73-520","old_slug":null,"official_id":"3218","name":"Bugenhagen-Schule Alsterdorf, Schule für Kinder mit besonderem Förderbedarf","lon":10.027866,"lat":53.616453,"homepage_url":null,"federal_state_code":"HH","fax_number":"+49 40 5 07 73-198","email_address":null,"city":"Hamburg"},{"zip_code":"20535","street":"Bürgerweide 33","school_type_entity":"Gymnasium","school_type":"Gymnasium","phone_number":"+49 40 2 51 734-0","old_slug":null,"official_id":"3219","name":"Sankt-Ansgar-Schule","lon":10.031605,"lat":53.557509,"homepage_url":null,"federal_state_code":"HH","fax_number":"+49 40 2 51 734-30","email_address":null,"city":"Hamburg"},{"zip_code":"20354","street":"Warburgstraße 39","school_type_entity":"Gymnasium","school_type":"Gymnasium","phone_number":"+49 40 450 229-10","old_slug":null,"official_id":"3220","name":"Sophie-Barat-Schule","lon":9.995477,"lat":53.561991,"homepage_url":null,"federal_state_code":"HH","fax_number":"+49 40 450 229-29","email_address":null,"city":"Hamburg"},{"zip_code":"21149","street":"Cuxhavener Straße 379","school_type_entity":"Stadtteilschule","school_type":"Stadtteilschule","phone_number":"+49 40 702 92 39-10","old_slug":null,"official_id":"3222","name":"Katholische Schule Neugraben","lon":9.8446,"lat":53.472025,"homepage_url":null,"federal_state_code":"HH","fax_number":"+49 40 702 92 39-29","email_address":null,"city":"Hamburg"},{"zip_code":"22337","street":"Alsterdorfer Straße 506","school_type_entity":"Stadtteilschule","school_type":"Stadtteilschule","phone_number":"+49 40 5","old_slug":null,"official_id":"3223","name":"Bugenhagen-Schule Alsterdorf (Stadtteilschule)","lon":10.027866,"lat":53.616453,"homepage_url":null,"federal_state_code":"HH","fax_number":"+49 40 5 07 73-198","email_address":null,"city":"Hamburg"},{"zip_code":"21073","street":"Barlachstraße 16","school_type_entity":"Gymnasium","school_type":"Gymnasium","phone_number":"+49 40 87 88 907-10","old_slug":null,"official_id":"3224","name":"Niels-Stensen-Gymnasium","lon":9.971421,"lat":53.45789,"homepage_url":null,"federal_state_code":"HH","fax_number":"+49 40 87 88 907-29","email_address":null,"city":"Hamburg"},{"zip_code":"22587","street":"Oesterleystraße 22","school_type_entity":"Grundschule","school_type":"Grundschule","phone_number":"+49 40 866 235-34","old_slug":null,"official_id":"3225","name":"Bugenhagen-Schule im Hessepark (Grundschule)","lon":9.807543,"lat":53.562148,"homepage_url":null,"federal_state_code":"HH","fax_number":null,"email_address":null,"city":"Hamburg"},{"zip_code":"22337","street":"Alsterdorfer Straße 506","school_type_entity":"Grundschule","school_type":"Grundschule","phone_number":"+49 40 5 07 73-328","old_slug":null,"official_id":"3229","name":"Bugenhagen-Schule Alsterdorf (Grundschule)","lon":10.027866,"lat":53.616453,"homepage_url":null,"federal_state_code":"HH","fax_number":"+49 40 5 07 73-198","email_address":null,"city":"Hamburg"},{"zip_code":"20099","street":"Schmilinskystraße 70","school_type_entity":"Grundschule","school_type":"Grundschule","phone_number":"+49 40 28 01 71-4","old_slug":null,"official_id":"3230","name":"Domschule St. Marien (Grundschule)","lon":10.014614,"lat":53.557881,"homepage_url":null,"federal_state_code":"HH","fax_number":null,"email_address":null,"city":"Hamburg"},{"zip_code":"22607","street":"Bei der Flottbeker Mühle 28","school_type_entity":"Grundschule","school_type":"Grundschule","phone_number":"+49 40 81 99 42-89","old_slug":null,"official_id":"3231","name":"Bugenhagen-Schule Groß Flottbek","lon":9.869074,"lat":53.573012,"homepage_url":null,"federal_state_code":"HH","fax_number":"+49 40 81 99 44-85","email_address":null,"city":"Hamburg"},{"zip_code":"20535","street":"Quellenweg 10","school_type_entity":"Grundschule","school_type":"Grundschule","phone_number":"+49 40 21 11 10-92","old_slug":null,"official_id":"3232","name":"Bugenhagen-Schule Hamm, Evangelische Grundschule Paulus","lon":10.059502,"lat":53.561475,"homepage_url":null,"federal_state_code":"HH","fax_number":"+49 40 21 11 14-03","email_address":null,"city":"Hamburg"},{"zip_code":"22587","street":"Oesterleystraße 22","school_type_entity":"Stadtteilschule","school_type":"Stadtteilschule","phone_number":"+49 40 86 62 35-34","old_slug":null,"official_id":"3233","name":"Bugenhagen-Schule im Hessepark (Stadtteilschule)","lon":9.807543,"lat":53.562148,"homepage_url":null,"federal_state_code":"HH","fax_number":null,"email_address":null,"city":"Hamburg"},{"zip_code":"22307","street":"Langenfort 68","school_type_entity":"Stadtteilschule","school_type":"Stadtteilschule","phone_number":"+49 40 428 88 15 0","old_slug":null,"official_id":"5043","name":"Stadtteilschule Helmuth Hübener","lon":10.048417,"lat":53.599413,"homepage_url":null,"federal_state_code":"HH","fax_number":"+49 40 428 88 15 22","email_address":null,"city":"Hamburg"},{"zip_code":"22159","street":"Barenkrug 16","school_type_entity":"Stadtteilschule","school_type":"Stadtteilschule","phone_number":"+49 40 428 93 25-0","old_slug":null,"official_id":"5046","name":"Gyula Trebitsch Schule Tonndorf","lon":10.124487,"lat":53.59469,"homepage_url":null,"federal_state_code":"HH","fax_number":"+49 40 428 93 25-22","email_address":null,"city":"Hamburg"},{"zip_code":"22395","street":"Volksdorfer Damm 218","school_type_entity":"Stadtteilschule","school_type":"Stadtteilschule","phone_number":"+49 40 428 93 82-0","old_slug":null,"official_id":"5048","name":"Stadtteilschule Bergstedt","lon":10.137188,"lat":53.671707,"homepage_url":null,"federal_state_code":"HH","fax_number":"+49 40 428 93 82-22","email_address":null,"city":"Hamburg"},{"zip_code":"22417","street":"Tangstedter Landstraße 300","school_type_entity":"Stadtteilschule","school_type":"Stadtteilschule","phone_number":"+49 40 428 89 21 01","old_slug":null,"official_id":"5049","name":"Stadtteilschule Am Heidberg","lon":10.028731,"lat":53.670945,"homepage_url":null,"federal_state_code":"HH","fax_number":"+49 40 428 89 21 20","email_address":null,"city":"Hamburg"},{"zip_code":"22083","street":"Humboldtstraße 89","school_type_entity":"Stadtteilschule","school_type":"Stadtteilschule","phone_number":"+49 40 428 86 91 0","old_slug":null,"official_id":"5052","name":"Ilse-Löwenstein-Schule","lon":10.022011,"lat":53.576682,"homepage_url":null,"federal_state_code":"HH","fax_number":"+49 40 428 86 91 22","email_address":null,"city":"Hamburg"},{"zip_code":"22337","street":"Schluchtweg 1","school_type_entity":"Stadtteilschule","school_type":"Stadtteilschule","phone_number":"+49 40 428 93 05-0","old_slug":null,"official_id":"5053","name":"Albert-Schweitzer-Schule","lon":10.047345,"lat":53.632579,"homepage_url":null,"federal_state_code":"HH","fax_number":"+49 40 428 93 05-22","email_address":null,"city":"Hamburg"},{"zip_code":"22043","street":"Oktaviostraße 143","school_type_entity":"Stadtteilschule","school_type":"Stadtteilschule","phone_number":"+49 40 428 86 41-20","old_slug":null,"official_id":"5054","name":"Max-Schmeling-Stadtteilschule","lon":10.1038,"lat":53.567124,"homepage_url":null,"federal_state_code":"HH","fax_number":"+49 40 428 86 41-22","email_address":null,"city":"Hamburg"},{"zip_code":"22049","street":"Alter Teichweg 200","school_type_entity":"Stadtteilschule","school_type":"Stadtteilschule","phone_number":"+49 40 428 97 70","old_slug":"22049-stadtteilschule-alter-teichweg","official_id":"5056","name":"Stadtteilschule Alter Teichweg","lon":10.069987,"lat":53.587514,"homepage_url":"http://www.GS-ATW.de","federal_state_code":"HH","fax_number":"+49 40 428 97 72 11","email_address":"info@gs-atw.de","city":"Hamburg"},{"zip_code":"22115","street":"Mümmelmannsberg 75","school_type_entity":"Stadtteilschule","school_type":"Stadtteilschule","phone_number":"+49 40 428 979-0","old_slug":null,"official_id":"5057","name":"Stadtteilschule Mümmelmannsberg","lon":10.148621,"lat":53.52989,"homepage_url":null,"federal_state_code":"HH","fax_number":"+49 40 428 979-22","email_address":null,"city":"Hamburg"},{"zip_code":"22115","street":"Mümmelmannsberg 54","school_type_entity":"Grundschule","school_type":"Grundschule","phone_number":"+49 40 428 93 62-0","old_slug":null,"official_id":"5058","name":"Grundschule Mümmelmannsberg","lon":10.140067,"lat":53.529506,"homepage_url":null,"federal_state_code":"HH","fax_number":"+49 40 428 93 62-22","email_address":null,"city":"Hamburg"},{"zip_code":"22115","street":"Rahewinkel 9","school_type_entity":"Grundschule","school_type":"Grundschule","phone_number":"+49 40 428 93 06-0","old_slug":null,"official_id":"5059","name":"Grundschule Rahewinkel","lon":10.154793,"lat":53.526622,"homepage_url":null,"federal_state_code":"HH","fax_number":"+49 40 428 93 06-22","email_address":null,"city":"Hamburg"},{"zip_code":"21033","street":"Ladenbeker Weg 13","school_type_entity":"Stadtteilschule","school_type":"Stadtteilschule","phone_number":"+49 40 428 925-01","old_slug":null,"official_id":"5061","name":"Stadtteilschule Bergedorf","lon":10.187098,"lat":53.492832,"homepage_url":null,"federal_state_code":"HH","fax_number":"+49 40 428 925-200","email_address":null,"city":"Hamburg"},{"zip_code":"22303","street":"Grasweg 72","school_type_entity":"Stadtteilschule","school_type":"Stadtteilschule","phone_number":"+49 40 428 891-132","old_slug":null,"official_id":"5062","name":"Heinrich-Hertz-Schule","lon":10.010512,"lat":53.592979,"homepage_url":null,"federal_state_code":"HH","fax_number":"+49 40 428 891-199","email_address":null,"city":"Hamburg"},{"zip_code":"22111","street":"Horner Weg 89","school_type_entity":"Stadtteilschule","school_type":"Stadtteilschule","phone_number":"+49 40 428 87-20","old_slug":null,"official_id":"5063","name":"Stadtteilschule Horn","lon":10.069951,"lat":53.555403,"homepage_url":null,"federal_state_code":"HH","fax_number":"+49 40 428 87-2146","email_address":null,"city":"Hamburg"},{"zip_code":"22159","street":"An der Berner Au 12","school_type_entity":"Stadtteilschule","school_type":"Stadtteilschule","phone_number":"+49 40 428 928-0","old_slug":null,"official_id":"5064","name":"Erich Kästner Schule","lon":10.120114,"lat":53.619607,"homepage_url":null,"federal_state_code":"HH","fax_number":"+49 40 428 928-305","email_address":null,"city":"Hamburg"},{"zip_code":"22417","street":"Foorthkamp 42","school_type_entity":"Stadtteilschule","school_type":"Stadtteilschule","phone_number":"+49 40 428 797-0","old_slug":null,"official_id":"5065","name":"Fritz-Schumacher-Schule","lon":10.012487,"lat":53.660023,"homepage_url":null,"federal_state_code":"HH","fax_number":"+49 40 428 797-210","email_address":null,"city":"Hamburg"},{"zip_code":"22549","street":"Böttcherkamp 181","school_type_entity":"Stadtteilschule","school_type":"Stadtteilschule","phone_number":"+49 40 428 85-602","old_slug":null,"official_id":"5066","name":"Geschwister-Scholl-Stadtteilschule","lon":9.855568,"lat":53.591429,"homepage_url":null,"federal_state_code":"HH","fax_number":"+49 40 428 85-6225","email_address":null,"city":"Hamburg"},{"zip_code":"22457","street":"Halstenbeker Straße 41","school_type_entity":"Stadtteilschule","school_type":"Stadtteilschule","phone_number":"+49 40 428 93 26-0","old_slug":null,"official_id":"5067","name":"Julius-Leber-Schule","lon":9.903745,"lat":53.625006,"homepage_url":null,"federal_state_code":"HH","fax_number":"+49 40 428 93 26-12","email_address":null,"city":"Hamburg"},{"zip_code":"22393","street":"Am Pfeilshof 20","school_type_entity":"Stadtteilschule","school_type":"Stadtteilschule","phone_number":"+49 40 428 86 93-0","old_slug":null,"official_id":"5069","name":"Irena-Sendler-Schule","lon":10.103514,"lat":53.639928,"homepage_url":null,"federal_state_code":"HH","fax_number":"+49 40 428 86 93-10","email_address":null,"city":"Hamburg"},{"zip_code":"21073","street":"Bunatwiete 20","school_type_entity":"Stadtteilschule","school_type":"Stadtteilschule","phone_number":"+49 40 428 871-0","old_slug":null,"official_id":"5070","name":"Goethe-Schule-Harburg","lon":9.982271,"lat":53.45631,"homepage_url":null,"federal_state_code":"HH","fax_number":"+49 40 428 871-272","email_address":null,"city":"Hamburg"},{"zip_code":"20144","street":"Lehmweg 14","school_type_entity":"Stadtteilschule","school_type":"Stadtteilschule","phone_number":"+49 40 428 97-80","old_slug":null,"official_id":"5071","name":"Ida Ehre Schule","lon":9.979121,"lat":53.574695,"homepage_url":null,"federal_state_code":"HH","fax_number":"+49 40 428 97-8157","email_address":null,"city":"Hamburg"},{"zip_code":"21109","street":"Neuenfelder Straße 106","school_type_entity":"Stadtteilschule","school_type":"Stadtteilschule","phone_number":"+49 40 428 852-0","old_slug":null,"official_id":"5072","name":"Nelson-Mandela-Schule im Stadtteil Kirchdorf","lon":10.013895,"lat":53.493162,"homepage_url":null,"federal_state_code":"HH","fax_number":"+49 40 428 852-254","email_address":null,"city":"Hamburg"},{"zip_code":"22309","street":"Edwin-Scharff-Ring 56","school_type_entity":"Grundschule","school_type":"Grundschule","phone_number":"+49 40 428 96 38-0","old_slug":null,"official_id":"5074","name":"Grundschule Edwin-Scharff-Ring","lon":10.047782,"lat":53.615419,"homepage_url":null,"federal_state_code":"HH","fax_number":"+49 40 428 96 38-22","email_address":null,"city":"Hamburg"},{"zip_code":"22309","street":"Gropiusring 43","school_type_entity":"Stadtteilschule","school_type":"Stadtteilschule","phone_number":"+49 40 428 96 39-50","old_slug":null,"official_id":"5075","name":"Schule am See","lon":10.057353,"lat":53.61435,"homepage_url":null,"federal_state_code":"HH","fax_number":"+49 40 428 96 39-22","email_address":null,"city":"Hamburg"},{"zip_code":"22761","street":"Daimlerstraße 40","school_type_entity":"Stadtteilschule","school_type":"Stadtteilschule","phone_number":"+49 40 428 98 20","old_slug":null,"official_id":"5076","name":"Max-Brauer-Schule","lon":9.912774,"lat":53.570314,"homepage_url":null,"federal_state_code":"HH","fax_number":"+49 40 428 98 21 30","email_address":null,"city":"Hamburg"},{"zip_code":"22587","street":"Frahmstraße 15","school_type_entity":"Stadtteilschule","school_type":"Stadtteilschule","phone_number":"+49 40 428 828 0","old_slug":null,"official_id":"5077","name":"Stadtteilschule Blankenese","lon":9.822318,"lat":53.563791,"homepage_url":null,"federal_state_code":"HH","fax_number":"+49 40 428 828 245","email_address":null,"city":"Hamburg"},{"zip_code":"22399","street":"Poppenbüttler Stieg 7","school_type_entity":"Stadtteilschule","school_type":"Stadtteilschule","phone_number":"+49 40 428 829-211","old_slug":null,"official_id":"5079","name":"Stadtteilschule Poppenbüttel","lon":10.05067,"lat":53.64515,"homepage_url":null,"federal_state_code":"HH","fax_number":"+49 40 428 829-210","email_address":null,"city":"Hamburg"},{"zip_code":"21129","street":"Norderschulweg 14","school_type_entity":"Stadtteilschule","school_type":"Stadtteilschule","phone_number":"+49 40 428 85-901","old_slug":null,"official_id":"5080","name":"Stadtteilschule Finkenwerder","lon":9.875982,"lat":53.532133,"homepage_url":null,"federal_state_code":"HH","fax_number":"+49 40 428 85-9210","email_address":null,"city":"Hamburg"},{"zip_code":"22761","street":"Regerstraße 21","school_type_entity":"Stadtteilschule","school_type":"Stadtteilschule","phone_number":"+49 40 428 88-720","old_slug":null,"official_id":"5081","name":"Stadtteilschule Bahrenfeld","lon":9.908377,"lat":53.568163,"homepage_url":null,"federal_state_code":"HH","fax_number":"+49 40 428 88-7230","email_address":null,"city":"Hamburg"},{"zip_code":"22523","street":"Niekampsweg 25","school_type_entity":"Stadtteilschule","school_type":"Stadtteilschule","phone_number":"+49 40 428 79 6-0","old_slug":null,"official_id":"5083","name":"Stadtteilschule Eidelstedt","lon":9.896823,"lat":53.608656,"homepage_url":null,"federal_state_code":"HH","fax_number":"+49 40 428 79 6-230","email_address":null,"city":"Hamburg"},{"zip_code":"21035","street":"Von-Moltke-Bogen 40","school_type_entity":"Stadtteilschule","school_type":"Stadtteilschule","phone_number":"+49 40 428 76 47-0","old_slug":"21035-clara-grunwald-schule","official_id":"5084","name":"Gretel-Bergmann-Schule","lon":10.160935,"lat":53.486129,"homepage_url":"http://www.clara-grunwald-schule.de","federal_state_code":"HH","fax_number":"+49 40 428 76 47-10","email_address":"fiedler@cgs.hh.schule.de","city":"Hamburg"},{"zip_code":"22359","street":"Vörn Barkholt 6","school_type_entity":"Stadtteilschule","school_type":"Stadtteilschule","phone_number":"+49 40 428 96 92-0","old_slug":null,"official_id":"5085","name":"Stadtteilschule Walddörfer","lon":10.166554,"lat":53.652119,"homepage_url":null,"federal_state_code":"HH","fax_number":"+49 40 428 96 92-22","email_address":null,"city":"Hamburg"},{"zip_code":"21037","street":"Kirchwerder Hausdeich 341","school_type_entity":"Stadtteilschule","school_type":"Stadtteilschule","phone_number":"+49 40 428 96 74-0","old_slug":null,"official_id":"5087","name":"Stadtteilschule Kirchwerder","lon":10.202118,"lat":53.419911,"homepage_url":null,"federal_state_code":"HH","fax_number":"+49 40 723 77 14 4","email_address":null,"city":"Hamburg"},{"zip_code":"22303","street":"Meerweinstraße 26","school_type_entity":"Stadtteilschule","school_type":"Stadtteilschule","phone_number":"+49 40 428 98 42-0","old_slug":null,"official_id":"5088","name":"Stadtteilschule Winterhude","lon":10.026975,"lat":53.586985,"homepage_url":null,"federal_state_code":"HH","fax_number":"+49 40 428 98 42-45","email_address":null,"city":"Hamburg"},{"zip_code":"22117","street":"Pergamentweg 1","school_type_entity":"Stadtteilschule","school_type":"Stadtteilschule","phone_number":"+49 40 428 9318-0","old_slug":"22117-gymnasium-billstedt","official_id":"5089","name":"Stadtteilschule Öjendorf","lon":10.12098,"lat":53.541154,"homepage_url":"http://www.gymnasium-billstedt.de","federal_state_code":"HH","fax_number":"+49 40 428 9318-50","email_address":"gb@gybi.hh.schule.de","city":"Hamburg"},{"zip_code":"20251","street":"Löwenstraße 58","school_type_entity":"Stadtteilschule","school_type":"Stadtteilschule","phone_number":"+49 40 428 82-20","old_slug":null,"official_id":"5090","name":"Stadtteilschule Eppendorf","lon":9.973802,"lat":53.587233,"homepage_url":null,"federal_state_code":"HH","fax_number":"+49 40 428 82-2199","email_address":null,"city":"Hamburg"},{"zip_code":"21147","street":"Neumoorstück 1","school_type_entity":"Stadtteilschule","school_type":"Stadtteilschule","phone_number":"+49 40 428 89 3-02","old_slug":null,"official_id":"5093","name":"Stadtteilschule Süderelbe","lon":9.867307,"lat":53.477901,"homepage_url":null,"federal_state_code":"HH","fax_number":"+49 40 428 893-270","email_address":null,"city":"Hamburg"},{"zip_code":"21031","street":"Binnenfeldredder 7","school_type_entity":"Stadtteilschule","school_type":"Stadtteilschule","phone_number":"+49 40 428 876-05","old_slug":null,"official_id":"5094","name":"Stadtteilschule Lohbrügge","lon":10.207916,"lat":53.503794,"homepage_url":null,"federal_state_code":"HH","fax_number":"+49 40 428 876-522","email_address":null,"city":"Hamburg"},{"zip_code":"21107","street":"Perlstieg 1","school_type_entity":"Stadtteilschule","school_type":"Stadtteilschule","phone_number":"+49 40 428 825-0","old_slug":null,"official_id":"5095","name":"Stadtteilschule Wilhelmsburg","lon":9.993633,"lat":53.50428,"homepage_url":null,"federal_state_code":"HH","fax_number":"+49 40 428 825-143","email_address":null,"city":"Hamburg"},{"zip_code":"22119","street":"Steinadlerweg 26","school_type_entity":"Stadtteilschule","school_type":"Stadtteilschule","phone_number":"+49 40 428 48 4-0","old_slug":null,"official_id":"5097","name":"Brüder-Grimm-Schule","lon":10.106824,"lat":53.551606,"homepage_url":null,"federal_state_code":"HH","fax_number":"+49 40 428 48 4-153","email_address":null,"city":"Hamburg"},{"zip_code":"22145","street":"Deepenhorn 1","school_type_entity":"Stadtteilschule","school_type":"Stadtteilschule","phone_number":"+49 40 428 93 08-0","old_slug":null,"official_id":"5098","name":"Stadtteilschule Meiendorf","lon":10.164427,"lat":53.629096,"homepage_url":null,"federal_state_code":"HH","fax_number":"+49 40 679 69-022","email_address":null,"city":"Hamburg"},{"zip_code":"20539","street":"Slomanstieg 1","school_type_entity":"Stadtteilschule","school_type":"Stadtteilschule","phone_number":"+49 40 428 96 42-0","old_slug":null,"official_id":"5099","name":"Schule auf der Veddel","lon":10.019837,"lat":53.526857,"homepage_url":null,"federal_state_code":"HH","fax_number":"+49 40 7 80 78 5-22","email_address":null,"city":"Hamburg"},{"zip_code":"21129","street":"Ostfrieslandstraße 91","school_type_entity":"Grundschule","school_type":"Grundschule","phone_number":"+49 40 428 7615-0","old_slug":null,"official_id":"5100","name":"Aueschule Finkenwerder","lon":9.884702,"lat":53.526983,"homepage_url":null,"federal_state_code":"HH","fax_number":"+49 40 428 7615-22","email_address":null,"city":"Hamburg"},{"zip_code":"20457","street":"Am Dalmannkai 18","school_type_entity":"Grundschule","school_type":"Grundschule","phone_number":"+49 40 428 88-460","old_slug":"20457-katharinenschule-in-der-hafencity","official_id":"5101","name":"Katharinenschule in der Hafencity","lon":9.994563,"lat":53.542065,"homepage_url":"http://www.katharinenschule-hafencity.de","federal_state_code":"HH","fax_number":"+49 40 428 88-4622","email_address":"info@katharinenschule-hafencity.de","city":"Hamburg"},{"zip_code":"22159","street":"Berner Heerweg 99","school_type_entity":"Grundschule","school_type":"Grundschule","phone_number":"+49 40 428 93 83-0","old_slug":null,"official_id":"5102","name":"Grundschule Eckerkoppel","lon":10.115957,"lat":53.598866,"homepage_url":null,"federal_state_code":"HH","fax_number":"+49 40 428 93 83-22","email_address":null,"city":"Hamburg"},{"zip_code":"20359","street":"Friedrichstraße 55","school_type_entity":"Grundschule","school_type":"Grundschule","phone_number":"+49 40 428 967-550","old_slug":null,"official_id":"5103","name":"Grundschule St.Pauli","lon":9.958599,"lat":53.547707,"homepage_url":null,"federal_state_code":"HH","fax_number":"+49 40 428 967-558","email_address":null,"city":"Hamburg"},{"zip_code":"22523","street":"Lohkampstraße 145","school_type_entity":"Grundschule","school_type":"Grundschule","phone_number":"+49 40 428 96 41-0","old_slug":null,"official_id":"5104","name":"Grundschule Lohkampstraße","lon":9.888585,"lat":53.613058,"homepage_url":null,"federal_state_code":"HH","fax_number":"+49 40 571 47-3222","email_address":null,"city":"Hamburg"},{"zip_code":"20099","street":"Greifswalder Straße 40","school_type_entity":"Grundschule","school_type":"Grundschule","phone_number":"+49 40 428 88-270","old_slug":null,"official_id":"5105","name":"Heinrich-Wolgast-Schule","lon":10.010887,"lat":53.556448,"homepage_url":null,"federal_state_code":"HH","fax_number":"+49 40 428 88-2722","email_address":null,"city":"Hamburg"},{"zip_code":"20535","street":"Hohe Landwehr 19","school_type_entity":"Grundschule","school_type":"Grundschule","phone_number":"+49 40 428 8876-0","old_slug":null,"official_id":"5106","name":"Schule Hohe Landwehr","lon":10.041138,"lat":53.557559,"homepage_url":null,"federal_state_code":"HH","fax_number":"+49 40 428 8876-77","email_address":null,"city":"Hamburg"},{"zip_code":"22417","street":"Tangstedter Landstraße 300","school_type_entity":"Grundschule","school_type":"Grundschule","phone_number":"+49 40 428 933-20","old_slug":null,"official_id":"5111","name":"Grundschule Am Heidberg","lon":10.028731,"lat":53.670945,"homepage_url":null,"federal_state_code":"HH","fax_number":"+49 40 428 933-219","email_address":null,"city":"Hamburg"},{"zip_code":"21109","street":"Prassekstraße 5","school_type_entity":"Grundschule","school_type":"Grundschule","phone_number":"+49 40 428 85-2249","old_slug":null,"official_id":"5117","name":"Grundschule Kirchdorf","lon":10.009719,"lat":53.492697,"homepage_url":null,"federal_state_code":"HH","fax_number":"+49 40 428 85-2256","email_address":null,"city":"Hamburg"},{"zip_code":"22117","street":"Archenholzstraße 55","school_type_entity":"Grundschule","school_type":"Grundschule","phone_number":"+49 40 428 93 27-0","old_slug":null,"official_id":"5118","name":"Grundschule Archenholzstraße","lon":10.119649,"lat":53.54374,"homepage_url":null,"federal_state_code":"HH","fax_number":"+49 40 428 93 27-20","email_address":null,"city":"Hamburg"},{"zip_code":"21129","street":"Finkenwerder Landscheideweg 180","school_type_entity":"Grundschule","school_type":"Grundschule","phone_number":"+49 40 428 8837-0","old_slug":null,"official_id":"5119","name":"Westerschule Finkenwerder","lon":9.863057,"lat":53.527914,"homepage_url":null,"federal_state_code":"HH","fax_number":"+49 40 428 8837-22","email_address":null,"city":"Hamburg"},{"zip_code":"20539","street":"Marckmannstraße 60","school_type_entity":"Sonderschule","school_type":"Sonderschule","phone_number":"+49 40 428 88 82-0","old_slug":null,"official_id":"5121","name":"Schule Marckmannstraße","lon":10.039775,"lat":53.535523,"homepage_url":null,"federal_state_code":"HH","fax_number":"+49 40 428 88 82-32","email_address":null,"city":"Hamburg"},{"zip_code":"20249","street":"Robert-Koch-Straße 15","school_type_entity":"Grundschule","school_type":"Grundschule","phone_number":"+49 40 428 88-740","old_slug":null,"official_id":"5124","name":"Grundschule St. Nikolai","lon":9.983726,"lat":53.588932,"homepage_url":null,"federal_state_code":"HH","fax_number":"+49 40 428 88-7422","email_address":null,"city":"Hamburg"},{"zip_code":"22083","street":"Imstedt 18","school_type_entity":"Grundschule","school_type":"Grundschule","phone_number":"+49 40 428 9302-30","old_slug":null,"official_id":"5127","name":"Goldbek-Schule","lon":10.02837,"lat":53.579475,"homepage_url":null,"federal_state_code":"HH","fax_number":"+49 40 428 9302-22","email_address":null,"city":"Hamburg"},{"zip_code":"22111","street":"Beim Pachthof 15","school_type_entity":"Grundschule","school_type":"Grundschule","phone_number":"+49 40 428 98-30","old_slug":null,"official_id":"5130","name":"Schule Beim Pachthof","lon":10.082137,"lat":53.551564,"homepage_url":null,"federal_state_code":"HH","fax_number":"+49 40 428 98-250","email_address":null,"city":"Hamburg"},{"zip_code":"20539","street":"Marckmannstraße 61","school_type_entity":"Grundschule","school_type":"Grundschule","phone_number":"+49 40 24 83 56-0","old_slug":null,"official_id":"5134","name":"Fritz-Köhne-Schule","lon":10.039874,"lat":53.535801,"homepage_url":null,"federal_state_code":"HH","fax_number":"+49 40 24 83 56-22","email_address":null,"city":"Hamburg"},{"zip_code":"22393","street":"Hasenweg 40","school_type_entity":"Grundschule","school_type":"Grundschule","phone_number":"+49 40 428 96 44-0","old_slug":null,"official_id":"5136","name":"Grundschule Hasenweg","lon":10.118698,"lat":53.638285,"homepage_url":null,"federal_state_code":"HH","fax_number":"+49 40 8 70 85-3222","email_address":null,"city":"Hamburg"},{"zip_code":"22769","street":"Arnkielstraße 2","school_type_entity":"Grundschule","school_type":"Grundschule","phone_number":"+49 40 428 93 57-0","old_slug":null,"official_id":"5137","name":"Grundschule Arnkielstraße","lon":9.952837,"lat":53.564073,"homepage_url":null,"federal_state_code":"HH","fax_number":"+49 40 432 163-55","email_address":null,"city":"Hamburg"},{"zip_code":"20537","street":"Osterbrook 17","school_type_entity":"Grundschule","school_type":"Grundschule","phone_number":"+49 40 428 96 45-0","old_slug":null,"official_id":"5139","name":"Grundschule Osterbrook","lon":10.056307,"lat":53.549008,"homepage_url":null,"federal_state_code":"HH","fax_number":"+49 40 2 19 09 8-22","email_address":null,"city":"Hamburg"},{"zip_code":"22399","street":"Schulbergredder 21","school_type_entity":"Grundschule","school_type":"Grundschule","phone_number":"+49 40 428 93 1722","old_slug":null,"official_id":"5143","name":"Grundschule Poppenbüttel","lon":10.080423,"lat":53.658997,"homepage_url":null,"federal_state_code":"HH","fax_number":"+49 40 428 93 1755","email_address":null,"city":"Hamburg"},{"zip_code":"22605","street":"Holmbrook 20","school_type_entity":"Sonderschule","school_type":"Sonderschule","phone_number":"+49 40 428 48 50","old_slug":null,"official_id":"5145","name":"Elbschule Bildungszentrum Hören und Kommunikation","lon":9.899005,"lat":53.552854,"homepage_url":null,"federal_state_code":"HH","fax_number":"+49 40 428 48 52 22","email_address":null,"city":"Hamburg"},{"zip_code":"22589","street":"Grotefendweg 20","school_type_entity":"Grundschule","school_type":"Grundschule","phone_number":"+49 40 428 7633-0","old_slug":null,"official_id":"5158","name":"Elbkinder Grundschule","lon":9.829594,"lat":53.56673,"homepage_url":null,"federal_state_code":"HH","fax_number":"+49 40 428 7633-22","email_address":null,"city":"Hamburg"},{"zip_code":"22115","street":"Sonnenland 27","school_type_entity":"Grundschule","school_type":"Grundschule","phone_number":"+49 40 428 93 63-0","old_slug":null,"official_id":"5160","name":"Schule An der Glinder Au","lon":10.131631,"lat":53.534304,"homepage_url":null,"federal_state_code":"HH","fax_number":"+49 40 428 93 63-52","email_address":null,"city":"Hamburg"},{"zip_code":"20357","street":"Ludwigstraße 7","school_type_entity":"Grundschule","school_type":"Grundschule","phone_number":"+49 40 428 86-830","old_slug":null,"official_id":"5167","name":"Ganztagsgrundschule Sternschanze","lon":9.966051,"lat":53.559763,"homepage_url":null,"federal_state_code":"HH","fax_number":"+49 40 428 86-8310","email_address":null,"city":"Hamburg"},{"zip_code":"22119","street":"Speckenreye 11","school_type_entity":"Grundschule","school_type":"Grundschule","phone_number":"+49 40 428 93 64-0","old_slug":null,"official_id":"5169","name":"Schule Speckenreye","lon":10.095461,"lat":53.554455,"homepage_url":null,"federal_state_code":"HH","fax_number":"+49 40 428 93 64-22","email_address":null,"city":"Hamburg"},{"zip_code":"22111","street":"Hermannstal 82","school_type_entity":"Grundschule","school_type":"Grundschule","phone_number":"+49 40 428 86-4910","old_slug":null,"official_id":"5171","name":"Schule Stengelestraße","lon":10.094971,"lat":53.550884,"homepage_url":null,"federal_state_code":"HH","fax_number":"+49 40 428 86-4922","email_address":null,"city":"Hamburg"},{"zip_code":"22117","street":"Oberschleems 9","school_type_entity":"Grundschule","school_type":"Grundschule","phone_number":"+49 40 428 93 19-0","old_slug":null,"official_id":"5172","name":"Schule am Schleemer Park","lon":10.119312,"lat":53.537435,"homepage_url":null,"federal_state_code":"HH","fax_number":"+49 40 714 87-472","email_address":null,"city":"Hamburg"},{"zip_code":"22119","street":"Sterntalerstraße 42","school_type_entity":"Grundschule","school_type":"Grundschule","phone_number":"+49 40 428 86 73-0","old_slug":null,"official_id":"5173","name":"Schule Sterntalerstraße","lon":10.112743,"lat":53.560032,"homepage_url":null,"federal_state_code":"HH","fax_number":"+49 40 428 86 73-22","email_address":null,"city":"Hamburg"},{"zip_code":"22117","street":"Bonhoefferstraße 13","school_type_entity":"Grundschule","school_type":"Grundschule","phone_number":"+49 40 428 93 65-0","old_slug":null,"official_id":"5174","name":"Schule Bonhoefferstraße","lon":10.136732,"lat":53.54497,"homepage_url":null,"federal_state_code":"HH","fax_number":"+49 40 428 93 65-52","email_address":null,"city":"Hamburg"},{"zip_code":"22119","street":"Dringsheide 10","school_type_entity":"Grundschule","school_type":"Grundschule","phone_number":"+49 40 428 93 66-0","old_slug":null,"official_id":"5175","name":"Schule Fuchsbergredder","lon":10.121536,"lat":53.561538,"homepage_url":null,"federal_state_code":"HH","fax_number":"+49 40 428 93 66-14","email_address":null,"city":"Hamburg"},{"zip_code":"22765","street":"Gaußstraße 171","school_type_entity":"Grundschule","school_type":"Grundschule","phone_number":"+49 40 428 88-910","old_slug":null,"official_id":"5202","name":"Schule Bahrenfelder Straße","lon":9.926885,"lat":53.558542,"homepage_url":null,"federal_state_code":"HH","fax_number":"+49 40 428 88-9122","email_address":null,"city":"Hamburg"},{"zip_code":"22179","street":"Bramfelder Dorfplatz 5","school_type_entity":"Grundschule","school_type":"Grundschule","phone_number":"+49 40 428 8619-60","old_slug":null,"official_id":"5205","name":"Grundschule Bramfeld","lon":10.077605,"lat":53.614126,"homepage_url":null,"federal_state_code":"HH","fax_number":"+49 40 428 8619-62","email_address":null,"city":"Hamburg"},{"zip_code":"22767","street":"Thedestraße 100","school_type_entity":"Grundschule","school_type":"Grundschule","phone_number":"+49 40 428 88-690","old_slug":null,"official_id":"5206","name":"Louise Schroeder Schule","lon":9.949814,"lat":53.553685,"homepage_url":null,"federal_state_code":"HH","fax_number":"+49 40 428 88-6910","email_address":null,"city":"Hamburg"},{"zip_code":"22175","street":"Lienaustraße 32","school_type_entity":"Grundschule","school_type":"Grundschule","phone_number":"+49 40 428 93 21-30","old_slug":null,"official_id":"5208","name":"Grundschule Karlshöhe mit Zweigstellen","lon":10.125543,"lat":53.629151,"homepage_url":null,"federal_state_code":"HH","fax_number":"+49 40 428 93 21-44","email_address":null,"city":"Hamburg"},{"zip_code":"22605","street":"Klein Flottbeker Weg 64","school_type_entity":"Grundschule","school_type":"Grundschule","phone_number":"+49 40 428 93 28-0","old_slug":null,"official_id":"5209","name":"Schule Klein Flottbeker Weg","lon":9.883931,"lat":53.553344,"homepage_url":null,"federal_state_code":"HH","fax_number":"+49 40 428 93 28-31","email_address":null,"city":"Hamburg"},{"zip_code":"22763","street":"Othmarscher Kirchenweg 145","school_type_entity":"Grundschule","school_type":"Grundschule","phone_number":"+49 40 428 88-450","old_slug":null,"official_id":"5210","name":"Loki-Schmidt-Schule","lon":9.900346,"lat":53.553462,"homepage_url":null,"federal_state_code":"HH","fax_number":"+49 40 428 88-4550","email_address":null,"city":"Hamburg"},{"zip_code":"22765","street":"Rothestraße 22","school_type_entity":"Grundschule","school_type":"Grundschule","phone_number":"+49 40 428 987-211","old_slug":null,"official_id":"5211","name":"Schule Rothestraße","lon":9.928908,"lat":53.548568,"homepage_url":null,"federal_state_code":"HH","fax_number":"+49 40 428 987-210","email_address":null,"city":"Hamburg"},{"zip_code":"22767","street":"Struenseestraße 32","school_type_entity":"Grundschule","school_type":"Grundschule","phone_number":"+49 40 428 9677-20","old_slug":null,"official_id":"5212","name":"Ganztagsschule an der Elbe","lon":9.945191,"lat":53.547502,"homepage_url":null,"federal_state_code":"HH","fax_number":"+49 40 428 9677-19","email_address":null,"city":"Hamburg"},{"zip_code":"22767","street":"Thadenstraße 147","school_type_entity":"Grundschule","school_type":"Grundschule","phone_number":"+49 40 428 84-101","old_slug":null,"official_id":"5214","name":"Grundschule Thadenstraße","lon":9.954912,"lat":53.557082,"homepage_url":null,"federal_state_code":"HH","fax_number":"+49 40 428 84-1210","email_address":null,"city":"Hamburg"},{"zip_code":"22765","street":"Haubachstraße 55","school_type_entity":"Grundschule","school_type":"Grundschule","phone_number":"+49 40 428 8849-0","old_slug":null,"official_id":"5216","name":"Theodor-Haubach-Schule","lon":9.941483,"lat":53.559364,"homepage_url":null,"federal_state_code":"HH","fax_number":"+49 40 428 8849-40","email_address":null,"city":"Hamburg"},{"zip_code":"22605","street":"Trenknerweg 136","school_type_entity":"Grundschule","school_type":"Grundschule","phone_number":"+49 40 428 93 84-0","old_slug":null,"official_id":"5217","name":"Schule Trenknerweg","lon":9.910484,"lat":53.548381,"homepage_url":null,"federal_state_code":"HH","fax_number":"+49 40 897 20-7722","email_address":null,"city":"Hamburg"},{"zip_code":"22605","street":"Holmbrook 10","school_type_entity":"Sonderschule","school_type":"Sonderschule","phone_number":"+49 40 428 88-210","old_slug":null,"official_id":"5219","name":"Schule Hirtenweg","lon":9.900276,"lat":53.55188,"homepage_url":null,"federal_state_code":"HH","fax_number":"+49 40 428 88-2124","email_address":null,"city":"Hamburg"},{"zip_code":"22043","street":"Schimmelmannstraße 70","school_type_entity":"Grundschule","school_type":"Grundschule","phone_number":"+49 40 656 8956-0","old_slug":null,"official_id":"5220","name":"Grundschule Schimmelmannstraße","lon":10.102693,"lat":53.571551,"homepage_url":null,"federal_state_code":"HH","fax_number":"+49 40 656 8956-22","email_address":null,"city":"Hamburg"},{"zip_code":"22549","street":"Goosacker 41","school_type_entity":"Grundschule","school_type":"Grundschule","phone_number":"+49 40 428 93 85-0","old_slug":null,"official_id":"5231","name":"Grundschule Goosacker","lon":9.849501,"lat":53.570968,"homepage_url":null,"federal_state_code":"HH","fax_number":"+49 40 428 93 85-22","email_address":null,"city":"Hamburg"},{"zip_code":"22587","street":"Karstenstraße 22","school_type_entity":"Grundschule","school_type":"Grundschule","phone_number":"+49 40 428 93 86-0","old_slug":null,"official_id":"5232","name":"Gorch-Fock-Schule","lon":9.801212,"lat":53.564438,"homepage_url":null,"federal_state_code":"HH","fax_number":"+49 40 870 89-155","email_address":null,"city":"Hamburg"},{"zip_code":"22559","street":"Iserbarg 2","school_type_entity":"Grundschule","school_type":"Grundschule","phone_number":"+49 40 428 93 87-0","old_slug":null,"official_id":"5234","name":"Schule Iserbarg","lon":9.760988,"lat":53.57503,"homepage_url":null,"federal_state_code":"HH","fax_number":"+49 40 428 93 87-22","email_address":null,"city":"Hamburg"},{"zip_code":"22589","street":"Lehmkuhlenweg 19","school_type_entity":"Grundschule","school_type":"Grundschule","phone_number":"+49 40 428 93 88-0","old_slug":null,"official_id":"5235","name":"Schule Lehmkuhlenweg","lon":9.790668,"lat":53.584986,"homepage_url":null,"federal_state_code":"HH","fax_number":"+49 40 41 36 59-22","email_address":null,"city":"Hamburg"},{"zip_code":"22559","street":"Marschweg 10","school_type_entity":"Grundschule","school_type":"Grundschule","phone_number":"+49 40 428 93 89-0","old_slug":null,"official_id":"5236","name":"Schule Marschweg","lon":9.761606,"lat":53.584595,"homepage_url":null,"federal_state_code":"HH","fax_number":"+49 40 428 93 89-22","email_address":null,"city":"Hamburg"},{"zip_code":"22761","street":"Mendelssohnstraße 86","school_type_entity":"Grundschule","school_type":"Grundschule","phone_number":"+49 40 428 93 91-0","old_slug":null,"official_id":"5237","name":"Schule Mendelssohnstraße","lon":9.905849,"lat":53.563704,"homepage_url":null,"federal_state_code":"HH","fax_number":"+49 40 428 93 91-22","email_address":null,"city":"Hamburg"},{"zip_code":"22589","street":"Musäusstraße 29","school_type_entity":"Grundschule","school_type":"Grundschule","phone_number":"+49 40 428 897-0","old_slug":null,"official_id":"5238","name":"Schule Iserbrook","lon":9.812345,"lat":53.580445,"homepage_url":null,"federal_state_code":"HH","fax_number":"+49 40 428 897-522","email_address":null,"city":"Hamburg"},{"zip_code":"22607","street":"Osdorfer Weg 24","school_type_entity":"Grundschule","school_type":"Grundschule","phone_number":"+49 40 428 8875-0","old_slug":null,"official_id":"5239","name":"Grundschule Groß Flottbek","lon":9.894137,"lat":53.567321,"homepage_url":null,"federal_state_code":"HH","fax_number":"+49 40 428 8875-22","email_address":null,"city":"Hamburg"},{"zip_code":"22589","street":"Schenefelder Landstraße 206","school_type_entity":"Grundschule","school_type":"Grundschule","phone_number":"+49 40 428 93 92-0","old_slug":null,"official_id":"5240","name":"Schule Schenefelder Landstraße","lon":9.824234,"lat":53.577725,"homepage_url":null,"federal_state_code":"HH","fax_number":"+49 40 4 14 59-852","email_address":null,"city":"Hamburg"},{"zip_code":"22609","street":"Schulkamp 1","school_type_entity":"Grundschule","school_type":"Grundschule","phone_number":"+49 40 428 93 94-0","old_slug":null,"official_id":"5243","name":"Schule Schulkamp","lon":9.847219,"lat":53.553106,"homepage_url":null,"federal_state_code":"HH","fax_number":"+49 40 8 19 57-6222","email_address":null,"city":"Hamburg"},{"zip_code":"22607","street":"Windmühlenweg 17","school_type_entity":"Grundschule","school_type":"Grundschule","phone_number":"+49 40 428 93 95-0","old_slug":null,"official_id":"5244","name":"Schule Windmühlenweg","lon":9.870938,"lat":53.566878,"homepage_url":null,"federal_state_code":"HH","fax_number":"+49 40 428 93 95-22","email_address":null,"city":"Hamburg"},{"zip_code":"22761","street":"Kielkamp 16","school_type_entity":"Sonderschule","school_type":"Sonderschule","phone_number":"+49 40 428 93 96-0","old_slug":null,"official_id":"5245","name":"Schule Kielkamp","lon":9.899402,"lat":53.573351,"homepage_url":null,"federal_state_code":"HH","fax_number":"+49 40 428 93 96-56","email_address":null,"city":"Hamburg"},{"zip_code":"20355","street":"Kurze Straße 30","school_type_entity":"Grundschule","school_type":"Grundschule","phone_number":"+49 40 428 967-30","old_slug":null,"official_id":"5248","name":"Rudolf-Roß-Grundschule","lon":9.978766,"lat":53.553031,"homepage_url":null,"federal_state_code":"HH","fax_number":"+49 40 428 967-358","email_address":null,"city":"Hamburg"},{"zip_code":"22111","street":"Rhiemsweg 61","school_type_entity":"Grundschule","school_type":"Grundschule","phone_number":"+49 40 428 8698-0","old_slug":null,"official_id":"5250","name":"Grundschule Horn","lon":10.075143,"lat":53.558812,"homepage_url":null,"federal_state_code":"HH","fax_number":"+49 40 428 8698-22","email_address":null,"city":"Hamburg"},{"zip_code":"22145","street":"Nydamer Weg 44","school_type_entity":"Grundschule","school_type":"Grundschule","phone_number":"+49 40 428 86-460","old_slug":null,"official_id":"5252","name":"Grundschule Nydamer Weg","lon":10.154537,"lat":53.617305,"homepage_url":null,"federal_state_code":"HH","fax_number":"+49 40 428 86-4622","email_address":null,"city":"Hamburg"},{"zip_code":"22547","street":"Franzosenkoppel 118","school_type_entity":"Grundschule","school_type":"Grundschule","phone_number":"+49 40 428 93 97-12","old_slug":null,"official_id":"5263","name":"Grundschule Franzosenkoppel","lon":9.871529,"lat":53.608217,"homepage_url":null,"federal_state_code":"HH","fax_number":"+49 40 428 93 97-44","email_address":null,"city":"Hamburg"},{"zip_code":"22547","street":"Swatten Weg 10","school_type_entity":"Grundschule","school_type":"Grundschule","phone_number":"+49 40 428 7646-0","old_slug":null,"official_id":"5264","name":"Fridtjof-Nansen-Schule","lon":9.858029,"lat":53.59945,"homepage_url":null,"federal_state_code":"HH","fax_number":"+49 40 428 7646-22","email_address":null,"city":"Hamburg"},{"zip_code":"22523","street":"Furtweg 56","school_type_entity":"Grundschule","school_type":"Grundschule","phone_number":"+49 40 428 88-380","old_slug":null,"official_id":"5265","name":"Schule Furtweg","lon":9.899997,"lat":53.605139,"homepage_url":null,"federal_state_code":"HH","fax_number":"+49 40 428 88-3822","email_address":null,"city":"Hamburg"},{"zip_code":"22547","street":"Langbargheide 40","school_type_entity":"Grundschule","school_type":"Grundschule","phone_number":"+49 40 428 88-930","old_slug":null,"official_id":"5267","name":"Schule Langbargheide","lon":9.88961,"lat":53.59633,"homepage_url":null,"federal_state_code":"HH","fax_number":"+49 40 428 88-9322","email_address":null,"city":"Hamburg"},{"zip_code":"22547","street":"Luruper Hauptstraße 131","school_type_entity":"Grundschule","school_type":"Grundschule","phone_number":"+49 40 428 88-2425","old_slug":null,"official_id":"5270","name":"Grundschule Luruper Hauptstraße","lon":9.8542541,"lat":53.5983057,"homepage_url":null,"federal_state_code":"HH","fax_number":"+49 40 428 88-2432","email_address":null,"city":"Hamburg"},{"zip_code":"22523","street":"Baumacker 10","school_type_entity":"Grundschule","school_type":"Grundschule","phone_number":"+49 40 428 88-230","old_slug":null,"official_id":"5271","name":"Max-Traeger-Schule","lon":9.898091,"lat":53.616075,"homepage_url":null,"federal_state_code":"HH","fax_number":"+49 40 428 88-2325","email_address":null,"city":"Hamburg"},{"zip_code":"22523","street":"Rungwisch 23","school_type_entity":"Grundschule","school_type":"Grundschule","phone_number":"+49 40 428 96 19-0","old_slug":null,"official_id":"5274","name":"Schule Rungwisch","lon":9.911209,"lat":53.61131,"homepage_url":null,"federal_state_code":"HH","fax_number":"+49 40 428 96 19-22","email_address":null,"city":"Hamburg"},{"zip_code":"22549","street":"Wesperloh 19","school_type_entity":"Grundschule","school_type":"Grundschule","phone_number":"+49 40 428 93 98-0","old_slug":null,"official_id":"5277","name":"Schule Wesperloh","lon":9.862337,"lat":53.575808,"homepage_url":null,"federal_state_code":"HH","fax_number":"+49 40 241 98-522","email_address":null,"city":"Hamburg"},{"zip_code":"22549","street":"Kroonhorst 25","school_type_entity":"Grundschule","school_type":"Grundschule","phone_number":"+49 40 428 93 99-0","old_slug":null,"official_id":"5278","name":"Schule Kroonhorst","lon":9.846499,"lat":53.588594,"homepage_url":null,"federal_state_code":"HH","fax_number":"+49 40 428 93 99-22","email_address":null,"city":"Hamburg"},{"zip_code":"22549","street":"Bornheide 2","school_type_entity":"Grundschule","school_type":"Grundschule","phone_number":"+49 40 428 8868-0","old_slug":null,"official_id":"5280","name":"Schule Barlsheide","lon":9.856698,"lat":53.583164,"homepage_url":null,"federal_state_code":"HH","fax_number":"+49 40 428 8868-22","email_address":null,"city":"Hamburg"},{"zip_code":"20253","street":"Bismarckstraße 83","school_type_entity":"Grundschule","school_type":"Grundschule","phone_number":"+49 40 428 88-340","old_slug":null,"official_id":"5301","name":"Schule An der Isebek","lon":9.967867,"lat":53.575539,"homepage_url":null,"federal_state_code":"HH","fax_number":"+49 40 428 88-3422","email_address":null,"city":"Hamburg"},{"zip_code":"20253","street":"Wrangelstraße 80","school_type_entity":"Grundschule","school_type":"Grundschule","phone_number":"+49 40 428 93 01-0","old_slug":null,"official_id":"5304","name":"Grundschule Hoheluft","lon":9.967513,"lat":53.581466,"homepage_url":null,"federal_state_code":"HH","fax_number":"+49 40 428 93 01-22","email_address":null,"city":"Hamburg"},{"zip_code":"20257","street":"Eduardstraße 28","school_type_entity":"Grundschule","school_type":"Grundschule","phone_number":"+49 40 428 86-850","old_slug":null,"official_id":"5305","name":"Schule Eduardstraße","lon":9.947138,"lat":53.571975,"homepage_url":null,"federal_state_code":"HH","fax_number":"+49 40 428 86-8522","email_address":null,"city":"Hamburg"},{"zip_code":"20144","street":"Bundesstraße 94","school_type_entity":"Grundschule","school_type":"Grundschule","phone_number":"+49 40 428 93 03-0","old_slug":null,"official_id":"5308","name":"Schule Kielortallee","lon":9.979121,"lat":53.574695,"homepage_url":null,"federal_state_code":"HH","fax_number":"+49 40 4 13 30-5912","email_address":null,"city":"Hamburg"},{"zip_code":"22527","street":"Brehmweg 62","school_type_entity":"Grundschule","school_type":"Grundschule","phone_number":"+49 40 428 88-670","old_slug":null,"official_id":"5309","name":"Schule Brehmweg","lon":9.941182,"lat":53.584798,"homepage_url":null,"federal_state_code":"HH","fax_number":"+49 40 428 88-6720","email_address":null,"city":"Hamburg"},{"zip_code":"20255","street":"Lutterothstraße 34","school_type_entity":"Grundschule","school_type":"Grundschule","phone_number":"+49 40 428 88-360","old_slug":null,"official_id":"5310","name":"Schule Lutterothstraße","lon":9.953304,"lat":53.580956,"homepage_url":null,"federal_state_code":"HH","fax_number":"+49 40 428 88-3622","email_address":null,"city":"Hamburg"},{"zip_code":"20257","street":"Rellinger Straße 13","school_type_entity":"Grundschule","school_type":"Grundschule","phone_number":"+49 40 428 76 27 - 0","old_slug":null,"official_id":"5312","name":"Schule Rellinger Straße","lon":9.942389,"lat":53.57414,"homepage_url":null,"federal_state_code":"HH","fax_number":"+49 40 428 76 27 -22","email_address":null,"city":"Hamburg"},{"zip_code":"20259","street":"Tornquiststraße 60","school_type_entity":"Grundschule","school_type":"Grundschule","phone_number":"+49 40 428 96 71-0","old_slug":null,"official_id":"5315","name":"Schule Tornquiststraße","lon":9.95349,"lat":53.573549,"homepage_url":null,"federal_state_code":"HH","fax_number":"+49 40 4 44 65-22","email_address":null,"city":"Hamburg"},{"zip_code":"20148","street":"Turmweg 33","school_type_entity":"Grundschule","school_type":"Grundschule","phone_number":"+49 40 428 86-250","old_slug":null,"official_id":"5316","name":"Schule Turmweg","lon":9.991885,"lat":53.571372,"homepage_url":null,"federal_state_code":"HH","fax_number":"+49 40 428 86-2522","email_address":null,"city":"Hamburg"},{"zip_code":"22457","street":"Rönnkamp 3","school_type_entity":"Grundschule","school_type":"Grundschule","phone_number":"+49 40 428 96 21-0","old_slug":null,"official_id":"5328","name":"Schule Rönnkamp","lon":9.920023,"lat":53.646856,"homepage_url":null,"federal_state_code":"HH","fax_number":"+49 40 5 58 00-629","email_address":null,"city":"Hamburg"},{"zip_code":"22457","street":"Anna-Susanna-Stieg 3","school_type_entity":"Grundschule","school_type":"Grundschule","phone_number":"+49 40 428 96 22-0","old_slug":null,"official_id":"5330","name":"Schule Anna-Susanna-Stieg","lon":9.918993,"lat":53.642336,"homepage_url":null,"federal_state_code":"HH","fax_number":"+49 40 526 77-622","email_address":null,"city":"Hamburg"},{"zip_code":"22459","street":"Bindfeldweg 37","school_type_entity":"Grundschule","school_type":"Grundschule","phone_number":"+49 40 428 88-1610","old_slug":null,"official_id":"5331","name":"Grundschule Bindfeldweg","lon":9.946712,"lat":53.622937,"homepage_url":null,"federal_state_code":"HH","fax_number":"+49 40 428 88-1612","email_address":null,"city":"Hamburg"},{"zip_code":"22453","street":"Burgunderweg 2","school_type_entity":"Grundschule","school_type":"Grundschule","phone_number":"+49 40 428 96 23-0","old_slug":null,"official_id":"5332","name":"Schule Burgunderweg","lon":9.96395,"lat":53.628338,"homepage_url":null,"federal_state_code":"HH","fax_number":"+49 40 5 55 90-5722","email_address":null,"city":"Hamburg"},{"zip_code":"22523","street":"Heidacker 13","school_type_entity":"Grundschule","school_type":"Grundschule","phone_number":"+49 40 428 96 24-0","old_slug":null,"official_id":"5333","name":"Schule Heidacker","lon":9.890048,"lat":53.619831,"homepage_url":null,"federal_state_code":"HH","fax_number":"+49 40 428 96 24-88","email_address":null,"city":"Hamburg"},{"zip_code":"22529","street":"Döhrnstraße 42","school_type_entity":"Grundschule","school_type":"Grundschule","phone_number":"+49 40 428 96 25-0","old_slug":null,"official_id":"5334","name":"Schule Döhrnstraße","lon":9.956046,"lat":53.595995,"homepage_url":null,"federal_state_code":"HH","fax_number":"+49 40 4279 69737","email_address":null,"city":"Hamburg"},{"zip_code":"22457","street":"Frohmestraße 42","school_type_entity":"Grundschule","school_type":"Grundschule","phone_number":"+49 40 428 96 26-0","old_slug":null,"official_id":"5335","name":"Schule Frohmestraße","lon":9.920325,"lat":53.632555,"homepage_url":null,"federal_state_code":"HH","fax_number":"+49 40 428 96 26-22","email_address":null,"city":"Hamburg"},{"zip_code":"22529","street":"Hinter der Lieth 61","school_type_entity":"Grundschule","school_type":"Grundschule","phone_number":"+49 40 428 845-0","old_slug":null,"official_id":"5336","name":"Schule Hinter der Lieth","lon":9.945369,"lat":53.60323,"homepage_url":null,"federal_state_code":"HH","fax_number":"+49 40 428 845-222","email_address":null,"city":"Hamburg"},{"zip_code":"22525","street":"Molkenbuhrstraße 2","school_type_entity":"Grundschule","school_type":"Grundschule","phone_number":"+49 40 428 88 89 0","old_slug":null,"official_id":"5339","name":"Schule Molkenbuhrstraße","lon":9.925685,"lat":53.589222,"homepage_url":null,"federal_state_code":"HH","fax_number":"+49 40 428 88 89 22","email_address":null,"city":"Hamburg"},{"zip_code":"22455","street":"Sethweg 56","school_type_entity":"Grundschule","school_type":"Grundschule","phone_number":"+49 40 428 96 47-0","old_slug":null,"official_id":"5342","name":"Schule Sethweg","lon":9.943231,"lat":53.633267,"homepage_url":null,"federal_state_code":"HH","fax_number":"+49 40 555 05-377","email_address":null,"city":"Hamburg"},{"zip_code":"22529","street":"Vizelinstraße 50","school_type_entity":"Grundschule","school_type":"Grundschule","phone_number":"+49 40 428 7634-0","old_slug":null,"official_id":"5344","name":"Schule Vizelinstraße","lon":9.950638,"lat":53.588628,"homepage_url":null,"federal_state_code":"HH","fax_number":"+49 40 428 7634-22","email_address":null,"city":"Hamburg"},{"zip_code":"22527","street":"Wegenkamp 9","school_type_entity":"Grundschule","school_type":"Grundschule","phone_number":"+49 40 428 96 27-0","old_slug":"22527-schule-wegenkamp","official_id":"5345","name":"Schule Wegenkamp","lon":9.924162,"lat":53.602844,"homepage_url":"http://www.wegenkamp.de","federal_state_code":"HH","fax_number":"+49 40 428 96 27-22","email_address":"schule-wegenkamp@bbs.hamburg.de","city":"Hamburg"},{"zip_code":"22453","street":"Lokstedter Damm 38","school_type_entity":"Sonderschule","school_type":"Sonderschule","phone_number":"+49 40 428 93 29-0","old_slug":null,"official_id":"5346","name":"Schule Lokstedter Damm","lon":9.971772,"lat":53.607202,"homepage_url":null,"federal_state_code":"HH","fax_number":"+49 40 5 57 78-321","email_address":null,"city":"Hamburg"},{"zip_code":"22455","street":"Wagrierweg 18","school_type_entity":"Grundschule","school_type":"Grundschule","phone_number":"+49 40 428 96 48-0","old_slug":null,"official_id":"5347","name":"Schule Moorflagen","lon":9.944246,"lat":53.641941,"homepage_url":null,"federal_state_code":"HH","fax_number":"+49 40 5 70 01-577","email_address":null,"city":"Hamburg"},{"zip_code":"22455","street":"Sachsenweg 74","school_type_entity":"Grundschule","school_type":"Grundschule","phone_number":"+49 40 428 96 49-0","old_slug":null,"official_id":"5348","name":"Grundschule Sachsenweg","lon":9.96027,"lat":53.641946,"homepage_url":null,"federal_state_code":"HH","fax_number":"+49 40 593 54-7722","email_address":null,"city":"Hamburg"},{"zip_code":"22459","street":"Röthmoorweg 9","school_type_entity":"Grundschule","school_type":"Grundschule","phone_number":"+49 40 428 96 76-0","old_slug":null,"official_id":"5349","name":"Schule Röthmoorweg","lon":9.924784,"lat":53.627136,"homepage_url":null,"federal_state_code":"HH","fax_number":"+49 40 428 96 76-22","email_address":null,"city":"Hamburg"},{"zip_code":"22767","street":"Sommerhuder Straße 18","school_type_entity":"Sonderschule","school_type":"Sonderschule","phone_number":"+49 40 040","old_slug":null,"official_id":"5350","name":"ReBBZ Altona","lon":9.954003,"lat":53.562862,"homepage_url":null,"federal_state_code":"HH","fax_number":"+49 40 040","email_address":null,"city":"Hamburg"},{"zip_code":"22549","street":"Böttcherkamp 144","school_type_entity":"Sonderschule","school_type":"Sonderschule","phone_number":"+49 40 040","old_slug":null,"official_id":"5351","name":"ReBBZ Altona-West","lon":9.861976,"lat":53.592406,"homepage_url":null,"federal_state_code":"HH","fax_number":"+49 40 040","email_address":null,"city":"Hamburg"},{"zip_code":"21031","street":"Billwerder Billdeich 648 a","school_type_entity":"Sonderschule","school_type":"Sonderschule","phone_number":"+49 40 428 76 42 0","old_slug":null,"official_id":"5352","name":"ReBBZ Bergedorf","lon":10.185275,"lat":53.492724,"homepage_url":null,"federal_state_code":"HH","fax_number":"+49 40 428 76 42 22","email_address":null,"city":"Hamburg"},{"zip_code":"22459","street":"Bindfeldweg 37","school_type_entity":"Sonderschule","school_type":"Sonderschule","phone_number":"+49 40 040","old_slug":null,"official_id":"5353","name":"ReBBZ Eimsbüttel","lon":9.946712,"lat":53.622937,"homepage_url":null,"federal_state_code":"HH","fax_number":"+49 40 040","email_address":null,"city":"Hamburg"},{"zip_code":"21147","street":"Neumoorstück 2","school_type_entity":"Sonderschule","school_type":"Sonderschule","phone_number":"+49 40 79014630","old_slug":null,"official_id":"5354","name":"ReBBZ Süderelbe","lon":9.868113,"lat":53.478904,"homepage_url":null,"federal_state_code":"HH","fax_number":"+49 40 79014646","email_address":null,"city":"Hamburg"},{"zip_code":"21073","street":"Kapellenweg 63","school_type_entity":"Sonderschule","school_type":"Sonderschule","phone_number":"+49 40 428 885960","old_slug":null,"official_id":"5355","name":"ReBBZ Harburg","lon":9.972548,"lat":53.45816,"homepage_url":null,"federal_state_code":"HH","fax_number":"+49 40 428 885972","email_address":null,"city":"Hamburg"},{"zip_code":"22119","street":"Steinfeldtstraße 1","school_type_entity":"Sonderschule","school_type":"Sonderschule","phone_number":"+49 40 040","old_slug":null,"official_id":"5356","name":"ReBBZ Billstedt","lon":10.101296,"lat":53.546881,"homepage_url":null,"federal_state_code":"HH","fax_number":"+49 40 040","email_address":null,"city":"Hamburg"},{"zip_code":"21109","street":"Krieterstraße 2 a","school_type_entity":"Sonderschule","school_type":"Sonderschule","phone_number":"+49 40 42888530","old_slug":null,"official_id":"5357","name":"ReBBZ Wilhelmsburg","lon":10.013108,"lat":53.500272,"homepage_url":null,"federal_state_code":"HH","fax_number":"+49 40 428885322","email_address":null,"city":"Hamburg"},{"zip_code":"20537","street":"Laeiszstraße 12","school_type_entity":"Sonderschule","school_type":"Sonderschule","phone_number":"+49 40 21902530","old_slug":null,"official_id":"5358","name":"ReBBZ Mitte","lon":10.04937,"lat":53.547164,"homepage_url":null,"federal_state_code":"HH","fax_number":"+49 40 209025322","email_address":null,"city":"Hamburg"},{"zip_code":"22335","street":"Winterhuder Weg 11","school_type_entity":"Sonderschule","school_type":"Sonderschule","phone_number":"+49 40 040","old_slug":null,"official_id":"5359","name":"ReBBZ Winterhude","lon":10.004938,"lat":53.631369,"homepage_url":null,"federal_state_code":"HH","fax_number":"+49 40 040","email_address":null,"city":"Hamburg"},{"zip_code":"22297","street":"Sengelmannstraße 50","school_type_entity":"Sonderschule","school_type":"Sonderschule","phone_number":"+49 40 42888410","old_slug":"22297-robert-koch-schule","official_id":"5360","name":"ReBBZ Nord","lon":10.020026,"lat":53.614531,"homepage_url":"http://schule160.schul-cms.eu/index.php","federal_state_code":"HH","fax_number":"+49 40 428884122","email_address":"robert-koch-schule@bbs.hamburg.de","city":"Hamburg"},{"zip_code":"22175","street":"Wildschwanbrook 9","school_type_entity":"Sonderschule","school_type":"Sonderschule","phone_number":"+49 40 428 8648-40","old_slug":null,"official_id":"5361","name":"ReBBZ Wandsbek-Nord","lon":10.17108,"lat":53.627634,"homepage_url":null,"federal_state_code":"HH","fax_number":"+49 40 428 8648-53","email_address":null,"city":"Hamburg"},{"zip_code":"22043","street":"Hammer Straße 124","school_type_entity":"Sonderschule","school_type":"Sonderschule","phone_number":"+49 40 040","old_slug":null,"official_id":"5362","name":"ReBBZ Wandsbek-Süd","lon":10.066009,"lat":53.563018,"homepage_url":null,"federal_state_code":"HH","fax_number":"+49 40 040","email_address":null,"city":"Hamburg"},{"zip_code":"22299","street":"Alsterdorfer Straße 39","school_type_entity":"Grundschule","school_type":"Grundschule","phone_number":"+49 40 428 88-040","old_slug":null,"official_id":"5400","name":"Schule Alsterdorfer Straße","lon":9.995858,"lat":53.596324,"homepage_url":null,"federal_state_code":"HH","fax_number":"+49 40 428 88-0422","email_address":null,"city":"Hamburg"},{"zip_code":"22303","street":"Forsmannstraße 32","school_type_entity":"Grundschule","school_type":"Grundschule","phone_number":"+49 40 428 93 67-0","old_slug":null,"official_id":"5404","name":"Schule Forsmannstraße","lon":10.013911,"lat":53.584468,"homepage_url":null,"federal_state_code":"HH","fax_number":"+49 40 2 70 98-1822","email_address":null,"city":"Hamburg"},{"zip_code":"22083","street":"Humboldtstraße 30","school_type_entity":"Grundschule","school_type":"Grundschule","phone_number":"+49 40 428 76 39 10","old_slug":"22083-schule-humboldtstrasse","official_id":"5405","name":"Schule Humboldtstraße","lon":10.027026,"lat":53.57346,"homepage_url":"http://www.hu30.de","federal_state_code":"HH","fax_number":"+49 40 428 76 39 22","email_address":"info@hu30.de","city":"Hamburg"},{"zip_code":"20249","street":"Knauerstraße 22","school_type_entity":"Grundschule","school_type":"Grundschule","phone_number":"+49 40 428 88-110","old_slug":null,"official_id":"5409","name":"Schule Knauerstraße","lon":9.990382,"lat":53.590139,"homepage_url":null,"federal_state_code":"HH","fax_number":"+49 40 428 88-1122","email_address":null,"city":"Hamburg"},{"zip_code":"20251","street":"Schottmüllerstraße 23","school_type_entity":"Grundschule","school_type":"Grundschule","phone_number":"+49 40 428 04-2518","old_slug":null,"official_id":"5413","name":"Marie-Beschütz-Schule","lon":9.98564,"lat":53.591812,"homepage_url":null,"federal_state_code":"HH","fax_number":"+49 40 428 04-2493","email_address":null,"city":"Hamburg"},{"zip_code":"22085","street":"Winterhuder Weg 126","school_type_entity":"Grundschule","school_type":"Grundschule","phone_number":"+49 40 428 76 38 0","old_slug":null,"official_id":"5416","name":"Schule auf der Uhlenhorst","lon":10.017883,"lat":53.577806,"homepage_url":null,"federal_state_code":"HH","fax_number":"+49 40 428 76 38 22","email_address":null,"city":"Hamburg"},{"zip_code":"22297","street":"Alsterdorfer Straße 420","school_type_entity":"Sonderschule","school_type":"Sonderschule","phone_number":"+49 40 428 86 68 0","old_slug":"22297-kurt-juster-schule","official_id":"5417","name":"Kurt-Juster-Schule","lon":10.020571,"lat":53.613954,"homepage_url":"http://www.kurt-juster-schule.hamburg.de","federal_state_code":"HH","fax_number":"+49 40 428 86 6821","email_address":"kurt-juster-schule@bsb.hamburg.de","city":"Hamburg"},{"zip_code":"22303","street":"Carl-Cohn-Straße 2","school_type_entity":"Sonderschule","school_type":"Sonderschule","phone_number":"+49 40 428 88 61 0","old_slug":null,"official_id":"5418","name":"Bildungszentrum für Blinde und Sehbehinderte","lon":10.01186,"lat":53.601392,"homepage_url":null,"federal_state_code":"HH","fax_number":"+49 40 428 88 61 44","email_address":null,"city":"Hamburg"},{"zip_code":"22159","street":"Turnierstieg 16","school_type_entity":"Sonderschule","school_type":"Sonderschule","phone_number":"+49 40 428 96 96-0","old_slug":null,"official_id":"5419","name":"Schule Tegelweg","lon":10.095317,"lat":53.600861,"homepage_url":null,"federal_state_code":"HH","fax_number":"+49 40 645 57 84 7","email_address":null,"city":"Hamburg"},{"zip_code":"22081","street":"Zeisigstraße 3","school_type_entity":"Grundschule","school_type":"Grundschule","phone_number":"+49 40 428 795-0","old_slug":null,"official_id":"5430","name":"Adolph-Schönfelder-Schule","lon":10.047449,"lat":53.577639,"homepage_url":null,"federal_state_code":"HH","fax_number":"+49 40 428 795-245","email_address":null,"city":"Hamburg"},{"zip_code":"22307","street":"Ballerstaedtweg 1","school_type_entity":"Grundschule","school_type":"Grundschule","phone_number":"+49 40 428 86 56-0","old_slug":null,"official_id":"5437","name":"Schule Genslerstraße","lon":10.034489,"lat":53.611667,"homepage_url":null,"federal_state_code":"HH","fax_number":"+49 40 428 86 56-22","email_address":null,"city":"Hamburg"},{"zip_code":"22305","street":"Lämmersieth 72","school_type_entity":"Grundschule","school_type":"Grundschule","phone_number":"+49 40 428 95-70","old_slug":null,"official_id":"5439","name":"Schule Lämmersieth","lon":10.060373,"lat":53.588096,"homepage_url":null,"federal_state_code":"HH","fax_number":"+49 40 428 95-7210","email_address":null,"city":"Hamburg"},{"zip_code":"22147","street":"Paracelsusstraße 30","school_type_entity":"Sonderschule","school_type":"Sonderschule","phone_number":"+49 40 428 85-70","old_slug":null,"official_id":"5447","name":"Schule Paracelsusstraße","lon":10.136442,"lat":53.597654,"homepage_url":null,"federal_state_code":"HH","fax_number":"+49 40 428 85-710","email_address":null,"city":"Hamburg"},{"zip_code":"22297","street":"Carl-Cohn-Straße 2","school_type_entity":"Grundschule","school_type":"Grundschule","phone_number":"+49 40 428 88-0702","old_slug":null,"official_id":"5462","name":"Carl-Cohn-Schule","lon":10.01186,"lat":53.601392,"homepage_url":null,"federal_state_code":"HH","fax_number":"+49 40 428 88-0761","email_address":null,"city":"Hamburg"},{"zip_code":"22453","street":"Brödermannsweg 2","school_type_entity":"Grundschule","school_type":"Grundschule","phone_number":"+49 40 428 88-4210","old_slug":null,"official_id":"5463","name":"Carl-Götze-Schule","lon":9.977931,"lat":53.606962,"homepage_url":null,"federal_state_code":"HH","fax_number":"+49 40 428 88-4222","email_address":null,"city":"Hamburg"},{"zip_code":"22415","street":"Eberhofweg 63","school_type_entity":"Grundschule","school_type":"Grundschule","phone_number":"+49 40 428 96 59-0","old_slug":null,"official_id":"5464","name":"Schule Eberhofweg","lon":10.013936,"lat":53.650781,"homepage_url":null,"federal_state_code":"HH","fax_number":"+49 40 5 07 97-622","email_address":null,"city":"Hamburg"},{"zip_code":"22415","street":"Krohnstieg 107","school_type_entity":"Grundschule","school_type":"Grundschule","phone_number":"+49 40 428 96 62-0","old_slug":null,"official_id":"5469","name":"Schule Krohnstieg","lon":10.000299,"lat":53.647912,"homepage_url":null,"federal_state_code":"HH","fax_number":"+40 40 527 39 03 22","email_address":null,"city":"Hamburg"},{"zip_code":"22419","street":"Neubergerweg 2","school_type_entity":"Grundschule","school_type":"Grundschule","phone_number":"+49 40 428 96 63-0","old_slug":"22419-grundschule-neubergerweg","official_id":"5472","name":"Schule Neubergerweg","lon":10.002786,"lat":53.667588,"homepage_url":"http://www.hh.shuttle.de/hh/grnw","federal_state_code":"HH","fax_number":"+49 40 5 39 08-6622","email_address":"schuleneubergerweg@bbs.hamburg.de","city":"Hamburg"},{"zip_code":"22339","street":"Ohkampring 13","school_type_entity":"Grundschule","school_type":"Grundschule","phone_number":"+49 40 5 00 91-60","old_slug":null,"official_id":"5473","name":"Schule Ohkamp","lon":10.022017,"lat":53.637005,"homepage_url":null,"federal_state_code":"HH","fax_number":"+49 40 5 00 91-622","email_address":null,"city":"Hamburg"},{"zip_code":"22417","street":"Stockflethweg 160","school_type_entity":"Grundschule","school_type":"Grundschule","phone_number":"+49 40 428 96 55-0","old_slug":null,"official_id":"5476","name":"Schule Stockflethweg","lon":10.018655,"lat":53.679417,"homepage_url":null,"federal_state_code":"HH","fax_number":"+49 40 5 37 59-6322","email_address":null,"city":"Hamburg"},{"zip_code":"22335","street":"Ratsmühlendamm 39","school_type_entity":"Grundschule","school_type":"Grundschule","phone_number":"+49 40 428 88-010","old_slug":null,"official_id":"5480","name":"Schule Ratsmühlendamm","lon":10.020957,"lat":53.626234,"homepage_url":null,"federal_state_code":"HH","fax_number":"+49 40 428 88-0122","email_address":null,"city":"Hamburg"},{"zip_code":"22149","street":"Brockdorffstraße 64","school_type_entity":"Grundschule","school_type":"Grundschule","phone_number":"+49 40 428 86-960","old_slug":"22149-grundschule-brockdorffstrasse","official_id":"5501","name":"Grundschule Altrahlstedt","lon":10.163651,"lat":53.595968,"homepage_url":"http://www.schule-brockdorffstrasse.de","federal_state_code":"HH","fax_number":"+49 40 428 86-9622","email_address":"isa.hegewald@hanse.net","city":"Hamburg"},{"zip_code":"22149","street":"Brunskamp 17","school_type_entity":"Grundschule","school_type":"Grundschule","phone_number":"+49 40 428 93 69-0","old_slug":null,"official_id":"5502","name":"Schule Am Sooren","lon":10.181092,"lat":53.592678,"homepage_url":null,"federal_state_code":"HH","fax_number":"+49 40 428 93 69-22","email_address":null,"city":"Hamburg"},{"zip_code":"22147","street":"Bekassinenau 32","school_type_entity":"Grundschule","school_type":"Grundschule","phone_number":"+49 40 428 76 26 0","old_slug":null,"official_id":"5503","name":"Schule Bekassinenau","lon":10.13694,"lat":53.611906,"homepage_url":null,"federal_state_code":"HH","fax_number":"+49 40 428 76 26 22","email_address":null,"city":"Hamburg"},{"zip_code":"22149","street":"Brockdorffstraße 64","school_type_entity":"Grundschule","school_type":"Grundschule","phone_number":"+49 40 428 93 71-40","old_slug":"22149-grundschule-brockdorffstrasse","official_id":"5504","name":"Schule Brockdorffstraße","lon":10.163651,"lat":53.595968,"homepage_url":"http://www.schule-brockdorffstrasse.de","federal_state_code":"HH","fax_number":"+49 40 428 93 71-22","email_address":"isa.hegewald@hanse.net","city":"Hamburg"},{"zip_code":"22045","street":"Charlottenburger Straße 84","school_type_entity":"Grundschule","school_type":"Grundschule","phone_number":"+49 40 428 88 44 70","old_slug":null,"official_id":"5505","name":"Schule Charlottenburger Straße","lon":10.141767,"lat":53.586844,"homepage_url":null,"federal_state_code":"HH","fax_number":"+49 40 428 88 44 82","email_address":null,"city":"Hamburg"},{"zip_code":"22143","street":"Großlohering 11","school_type_entity":"Grundschule","school_type":"Grundschule","phone_number":"+49 40 428 93 72-0","old_slug":null,"official_id":"5506","name":"Grundschule Großlohering","lon":10.178152,"lat":53.600624,"homepage_url":null,"federal_state_code":"HH","fax_number":"+49 40 428 93 72-22","email_address":null,"city":"Hamburg"},{"zip_code":"22147","street":"Kamminer Straße 4","school_type_entity":"Grundschule","school_type":"Grundschule","phone_number":"+49 40 428 86-820","old_slug":null,"official_id":"5507","name":"Schule Kamminer Straße","lon":10.141331,"lat":53.61829,"homepage_url":null,"federal_state_code":"HH","fax_number":"+49 40 428 86-8222","email_address":null,"city":"Hamburg"},{"zip_code":"22143","street":"Stapelfelder Straße 7","school_type_entity":"Grundschule","school_type":"Grundschule","phone_number":"+49 40 428 8647-0","old_slug":null,"official_id":"5508","name":"Grundschule Neurahlstedt","lon":10.168621,"lat":53.605883,"homepage_url":null,"federal_state_code":"HH","fax_number":"+49 40 428 8647-22","email_address":null,"city":"Hamburg"},{"zip_code":"22149","street":"Potsdamer Straße 6","school_type_entity":"Grundschule","school_type":"Grundschule","phone_number":"+49 40 428 93 73-30","old_slug":null,"official_id":"5510","name":"Schule Potsdamer Straße","lon":10.150715,"lat":53.58408,"homepage_url":null,"federal_state_code":"HH","fax_number":"+49 40 428 93 73-28","email_address":null,"city":"Hamburg"},{"zip_code":"22045","street":"Rahlaukamp 1","school_type_entity":"Grundschule","school_type":"Grundschule","phone_number":"+49 40 428 93 11-0","old_slug":null,"official_id":"5514","name":"Grundschule Tonndorf","lon":10.128393,"lat":53.58588,"homepage_url":null,"federal_state_code":"HH","fax_number":"+49 40 4279 699 69","email_address":null,"city":"Hamburg"},{"zip_code":"22045","street":"Bekkamp 52","school_type_entity":"Sonderschule","school_type":"Sonderschule","phone_number":"+49 40 428 86-510","old_slug":null,"official_id":"5515","name":"Schule Bekkamp","lon":10.142655,"lat":53.575188,"homepage_url":null,"federal_state_code":"HH","fax_number":"+49 40 428 865-117","email_address":null,"city":"Hamburg"},{"zip_code":"22395","street":"Alsterredder 28","school_type_entity":"Grundschule","school_type":"Grundschule","phone_number":"+49 40 428 96 51-12","old_slug":null,"official_id":"5520","name":"Schule Alsterredder","lon":10.099555,"lat":53.658655,"homepage_url":null,"federal_state_code":"HH","fax_number":"+49 40 428 96 51-22","email_address":null,"city":"Hamburg"},{"zip_code":"22397","street":"Kupferredder 12","school_type_entity":"Grundschule","school_type":"Grundschule","phone_number":"+49 40 428 96 01-0","old_slug":null,"official_id":"5522","name":"Schule Am Walde","lon":10.136258,"lat":53.697582,"homepage_url":null,"federal_state_code":"HH","fax_number":"+49 40 605 80-222","email_address":null,"city":"Hamburg"},{"zip_code":"22397","street":"Duvenstedter Markt 12","school_type_entity":"Grundschule","school_type":"Grundschule","phone_number":"+49 40 897 27 81-0","old_slug":null,"official_id":"5523","name":"Schule Duvenstedter Markt","lon":10.108214,"lat":53.703318,"homepage_url":null,"federal_state_code":"HH","fax_number":"+49 40 897 27 81-22","email_address":null,"city":"Hamburg"},{"zip_code":"22359","street":"Saseler Weg 30","school_type_entity":"Grundschule","school_type":"Grundschule","phone_number":"+49 40 428 96 03-0","old_slug":null,"official_id":"5525","name":"Schule An den Teichwiesen","lon":10.148515,"lat":53.649383,"homepage_url":null,"federal_state_code":"HH","fax_number":"+49 40 6 44 13-150","email_address":null,"city":"Hamburg"},{"zip_code":"22395","street":"Bergstedter Alte Landstraße 12","school_type_entity":"Grundschule","school_type":"Grundschule","phone_number":"+49 40 428 93 59-0","old_slug":null,"official_id":"5526","name":"Schule Bergstedt","lon":10.132439,"lat":53.671962,"homepage_url":null,"federal_state_code":"HH","fax_number":"+49 40 6 44 21-0622","email_address":null,"city":"Hamburg"},{"zip_code":"22359","street":"Volksdorfer Damm 74","school_type_entity":"Grundschule","school_type":"Grundschule","phone_number":"+49 40 428 96 04-0","old_slug":null,"official_id":"5529","name":"Schule Buckhorn","lon":10.148661,"lat":53.664645,"homepage_url":null,"federal_state_code":"HH","fax_number":"+49 40 6 44 21-0710","email_address":null,"city":"Hamburg"},{"zip_code":"22391","street":"Hinsbleek 14","school_type_entity":"Grundschule","school_type":"Grundschule","phone_number":"+49 40 428 93 12-0","old_slug":null,"official_id":"5530","name":"Schule Hinsbleek","lon":10.07398,"lat":53.650404,"homepage_url":null,"federal_state_code":"HH","fax_number":"+49 40 428 93 12-22","email_address":null,"city":"Hamburg"},{"zip_code":"22359","street":"Ahrensburger Weg 12","school_type_entity":"Grundschule","school_type":"Grundschule","phone_number":"+49 40 428 9694-20","old_slug":null,"official_id":"5532","name":"Schule Ahrensburger Weg","lon":10.170362,"lat":53.652032,"homepage_url":null,"federal_state_code":"HH","fax_number":"+49 40 428 9694-22","email_address":null,"city":"Hamburg"},{"zip_code":"22359","street":"Eulenkrugstraße 166","school_type_entity":"Grundschule","school_type":"Grundschule","phone_number":"+49 40 428 96 05-0","old_slug":"22359-schule-eulenkrugstrasse","official_id":"5533","name":"Schule Eulenkrugstraße","lon":10.183688,"lat":53.64436,"homepage_url":"http://www.schule-eulenkrugstrasse.hamburg.de","federal_state_code":"HH","fax_number":"+49 40 644 21-022","email_address":"schule.eulenkrugstrasse@bbs.hamburg.de","city":"Hamburg"},{"zip_code":"22393","street":"Redder 4","school_type_entity":"Grundschule","school_type":"Grundschule","phone_number":"+49 40 428 96 54-0","old_slug":null,"official_id":"5534","name":"Schule Redder","lon":10.109241,"lat":53.651331,"homepage_url":null,"federal_state_code":"HH","fax_number":"+49 40 63 64 61-52","email_address":null,"city":"Hamburg"},{"zip_code":"22397","street":"Redderbarg 46","school_type_entity":"Grundschule","school_type":"Grundschule","phone_number":"+49 40 428 96 06-0","old_slug":null,"official_id":"5535","name":"Schule Lemsahl-Mellingstedt","lon":10.103497,"lat":53.681422,"homepage_url":null,"federal_state_code":"HH","fax_number":"+49 40 608 20-322","email_address":null,"city":"Hamburg"},{"zip_code":"22399","street":"Müssenredder 61","school_type_entity":"Grundschule","school_type":"Grundschule","phone_number":"+49 40 428 96 53-0","old_slug":null,"official_id":"5537","name":"Schule Müssenredder","lon":10.066364,"lat":53.654962,"homepage_url":null,"federal_state_code":"HH","fax_number":"+49 40 5 33 06-8322","email_address":null,"city":"Hamburg"},{"zip_code":"22145","street":"Islandstraße 25","school_type_entity":"Grundschule","school_type":"Grundschule","phone_number":"+49 40 428 93 74-0","old_slug":null,"official_id":"5538","name":"Grundschule Islandstraße","lon":10.159966,"lat":53.629043,"homepage_url":null,"federal_state_code":"HH","fax_number":"+49 40 675 98-122","email_address":null,"city":"Hamburg"},{"zip_code":"22339","street":"Grützmühlenweg 38","school_type_entity":"Grundschule","school_type":"Grundschule","phone_number":"+49 40 428 96 52-0","old_slug":null,"official_id":"5540","name":"Schule Grützmühlenweg","lon":10.040549,"lat":53.64583,"homepage_url":null,"federal_state_code":"HH","fax_number":"+49 40 5 20 19-644","email_address":null,"city":"Hamburg"},{"zip_code":"22391","street":"Strenge 5","school_type_entity":"Grundschule","school_type":"Grundschule","phone_number":"+49 40 428 86-760","old_slug":"22391-schule-strenge","official_id":"5541","name":"Schule Strenge","lon":10.078586,"lat":53.637098,"homepage_url":"http://www.schule-strenge.de","federal_state_code":"HH","fax_number":"+49 40 428 86-7622","email_address":"info@schule-strenge.de","city":"Hamburg"},{"zip_code":"22145","street":"Wildschwanbrook 9","school_type_entity":"Grundschule","school_type":"Grundschule","phone_number":"+49 40 428 93 58-0","old_slug":null,"official_id":"5542","name":"Schule Wildschwanbrook","lon":10.17108,"lat":53.627634,"homepage_url":null,"federal_state_code":"HH","fax_number":"+49 40 428 93 58-22","email_address":null,"city":"Hamburg"},{"zip_code":"22147","street":"Ahrenshooper Straße 1","school_type_entity":"Grundschule","school_type":"Grundschule","phone_number":"+49 40 428 76 25 0","old_slug":null,"official_id":"5544","name":"Schule Rahlstedter Höhe","lon":10.132015,"lat":53.600364,"homepage_url":null,"federal_state_code":"HH","fax_number":"+49 40 428 76 25 22","email_address":null,"city":"Hamburg"},{"zip_code":"22159","street":"Eckerkoppel 125","school_type_entity":"Grundschule","school_type":"Grundschule","phone_number":"+49 40 428 96 28-0","old_slug":null,"official_id":"5550","name":"Schule Traberweg","lon":10.101421,"lat":53.597263,"homepage_url":null,"federal_state_code":"HH","fax_number":"+49 40 428 96 28-22","email_address":null,"city":"Hamburg"},{"zip_code":"22179","street":"Eenstock 15","school_type_entity":"Grundschule","school_type":"Grundschule","phone_number":"+49 40 428 96 07-0","old_slug":null,"official_id":"5551","name":"Schule Eenstock","lon":10.094531,"lat":53.605332,"homepage_url":null,"federal_state_code":"HH","fax_number":"+49 40 428 96 07-22","email_address":null,"city":"Hamburg"},{"zip_code":"22177","street":"Fabriciusstraße 150","school_type_entity":"Grundschule","school_type":"Grundschule","phone_number":"+49 40 428 93 22-50","old_slug":null,"official_id":"5557","name":"Schule An der Seebek","lon":10.067146,"lat":53.605009,"homepage_url":null,"federal_state_code":"HH","fax_number":"+49 40 428 93 22-63","email_address":null,"city":"Hamburg"},{"zip_code":"22179","street":"Fahrenkrön 115","school_type_entity":"Grundschule","school_type":"Grundschule","phone_number":"+49 40 428 96 29-0","old_slug":"22179-grundschule-fahrenkroen","official_id":"5558","name":"Schule Fahrenkrön","lon":10.097775,"lat":53.616266,"homepage_url":"http://www.schule-fahrenkroen.de","federal_state_code":"HH","fax_number":"+49 40 428 96 29-70","email_address":"info@schule-fahrenkroen.de","city":"Hamburg"},{"zip_code":"22309","street":"Appelhoff 2","school_type_entity":"Grundschule","school_type":"Grundschule","phone_number":"+49 40 428 93 61-0","old_slug":null,"official_id":"5564","name":"Schule Appelhoff","lon":10.05896,"lat":53.607404,"homepage_url":null,"federal_state_code":"HH","fax_number":"+49 40 428 93 61-16","email_address":null,"city":"Hamburg"},{"zip_code":"22159","street":"Bramfelder Weg 121","school_type_entity":"Grundschule","school_type":"Grundschule","phone_number":"+49 40 428 96 72-0","old_slug":null,"official_id":"5565","name":"Schule Surenland","lon":10.106627,"lat":53.614164,"homepage_url":null,"federal_state_code":"HH","fax_number":"+49 40 533 04-422","email_address":null,"city":"Hamburg"},{"zip_code":"22047","street":"Stephanstraße 103","school_type_entity":"Grundschule","school_type":"Grundschule","phone_number":"+49 40 428 96 57-0","old_slug":"22047-schule-an-der-gartenstadt","official_id":"5575","name":"Schule An der Gartenstadt","lon":10.085903,"lat":53.589398,"homepage_url":"http://www.sadg.de","federal_state_code":"HH","fax_number":"+49 40 2 80 58-022","email_address":"info@sadg.de","city":"Hamburg"},{"zip_code":"22041","street":"Bandwirkerstraße 56","school_type_entity":"Grundschule","school_type":"Grundschule","phone_number":"+49 40 428 96 56-0","old_slug":null,"official_id":"5577","name":"Schule Bandwirkerstraße","lon":10.067148,"lat":53.576671,"homepage_url":null,"federal_state_code":"HH","fax_number":"+49 40 689 46-3322","email_address":null,"city":"Hamburg"},{"zip_code":"22041","street":"Bovestraße 10","school_type_entity":"Grundschule","school_type":"Grundschule","phone_number":"+49 40 428 820-654","old_slug":null,"official_id":"5578","name":"Schule Bovestraße","lon":10.080291,"lat":53.571996,"homepage_url":null,"federal_state_code":"HH","fax_number":"+49 40 428 820-645","email_address":null,"city":"Hamburg"},{"zip_code":"22089","street":"Ritterstraße 44","school_type_entity":"Grundschule","school_type":"Grundschule","phone_number":"+49 40 428 86 11 0","old_slug":null,"official_id":"5581","name":"Schule Hasselbrook","lon":10.045177,"lat":53.564476,"homepage_url":null,"federal_state_code":"HH","fax_number":"+49 40 428 86 11 22","email_address":null,"city":"Hamburg"},{"zip_code":"22043","street":"Öjendorfer Damm 8","school_type_entity":"Grundschule","school_type":"Grundschule","phone_number":"+49 40 428 93 75-0","old_slug":null,"official_id":"5586","name":"Schule Öjendorfer Damm","lon":10.135676,"lat":53.568011,"homepage_url":null,"federal_state_code":"HH","fax_number":"+49 40 670 48-552","email_address":null,"city":"Hamburg"},{"zip_code":"22047","street":"Walddörferstraße 243","school_type_entity":"Grundschule","school_type":"Grundschule","phone_number":"+49 40 428 86-390","old_slug":null,"official_id":"5587","name":"Schule am Eichtalpark","lon":10.095787,"lat":53.58216,"homepage_url":null,"federal_state_code":"HH","fax_number":"+49 40 428 86-3922","email_address":null,"city":"Hamburg"},{"zip_code":"22089","street":"Richardstraße 85","school_type_entity":"Grundschule","school_type":"Grundschule","phone_number":"+49 40 428 93 76-0","old_slug":null,"official_id":"5588","name":"Schule Richardstraße","lon":10.039956,"lat":53.568004,"homepage_url":null,"federal_state_code":"HH","fax_number":"+49 40 428 93 76-77","email_address":null,"city":"Hamburg"},{"zip_code":"22089","street":"Wielandstraße 9","school_type_entity":"Grundschule","school_type":"Grundschule","phone_number":"+49 40 428 86-180","old_slug":null,"official_id":"5591","name":"Schule Wielandstraße","lon":10.054226,"lat":53.569992,"homepage_url":null,"federal_state_code":"HH","fax_number":"+49 40 428 86-1822","email_address":null,"city":"Hamburg"},{"zip_code":"22045","street":"Oppelner Straße 45","school_type_entity":"Grundschule","school_type":"Grundschule","phone_number":"+49 40 428 93 77-0","old_slug":null,"official_id":"5592","name":"Schule Oppelner Straße","lon":10.14442,"lat":53.573179,"homepage_url":null,"federal_state_code":"HH","fax_number":"+49 40 284 17-352","email_address":null,"city":"Hamburg"},{"zip_code":"22045","street":"Jenfelder Straße 252","school_type_entity":"Grundschule","school_type":"Grundschule","phone_number":"+49 40 428 93 31-0","old_slug":null,"official_id":"5594","name":"Schule Jenfelder Straße","lon":10.132927,"lat":53.576143,"homepage_url":null,"federal_state_code":"HH","fax_number":"+49 40 428 93 31-22","email_address":null,"city":"Hamburg"},{"zip_code":"21029","street":"Sander Straße 11","school_type_entity":"Grundschule","school_type":"Grundschule","phone_number":"+49 40 428 93 13-0","old_slug":null,"official_id":"5602","name":"Schule Sander Straße","lon":10.217435,"lat":53.49532,"homepage_url":null,"federal_state_code":"HH","fax_number":"+49 40 428 93 13-51","email_address":null,"city":"Hamburg"},{"zip_code":"21035","street":"Von-Haeften-Straße 1","school_type_entity":"Grundschule","school_type":"Grundschule","phone_number":"+49 40 428 93 23-0","old_slug":null,"official_id":"5603","name":"Anton-Rée-Schule Allermöhe","lon":10.16727,"lat":53.487769,"homepage_url":null,"federal_state_code":"HH","fax_number":"+49 40 428 93 23-40","email_address":null,"city":"Hamburg"},{"zip_code":"21029","street":"Ernst-Henning-Straße 20","school_type_entity":"Grundschule","school_type":"Grundschule","phone_number":"+49 40 428 86 59 0","old_slug":null,"official_id":"5604","name":"Schule Ernst-Henning-Straße","lon":10.226782,"lat":53.484161,"homepage_url":null,"federal_state_code":"HH","fax_number":"+49 40 428 86 59 22","email_address":null,"city":"Hamburg"},{"zip_code":"21031","street":"Leuschnerstraße 13","school_type_entity":"Grundschule","school_type":"Grundschule","phone_number":"+49 40 428 93 78-0","old_slug":null,"official_id":"5605","name":"Schule Leuschnerstraße","lon":10.20698,"lat":53.49608,"homepage_url":null,"federal_state_code":"HH","fax_number":"+49 40 239 59 7222","email_address":null,"city":"Hamburg"},{"zip_code":"21031","street":"Max-Eichholz-Ring 25","school_type_entity":"Grundschule","school_type":"Grundschule","phone_number":"+49 40 428 9379-0","old_slug":null,"official_id":"5607","name":"Schule Max-Eichholz-Ring","lon":10.216842,"lat":53.506608,"homepage_url":null,"federal_state_code":"HH","fax_number":"+49 40 428 9379-22","email_address":null,"city":"Hamburg"},{"zip_code":"21035","street":"Fiddigshagen 11","school_type_entity":"Grundschule","school_type":"Grundschule","phone_number":"+49 40 428 8881 0","old_slug":null,"official_id":"5610","name":"Schule Nettelnburg","lon":10.195053,"lat":53.480334,"homepage_url":null,"federal_state_code":"HH","fax_number":"+49 40 428 8881 22","email_address":null,"city":"Hamburg"},{"zip_code":"21031","street":"Mendelstraße 6","school_type_entity":"Grundschule","school_type":"Grundschule","phone_number":"+49 40 428 86-580","old_slug":null,"official_id":"5611","name":"Grundschule Mendelstraße","lon":10.192654,"lat":53.506356,"homepage_url":null,"federal_state_code":"HH","fax_number":"+49 40 428 86-5822","email_address":null,"city":"Hamburg"},{"zip_code":"21031","street":"Heidhorst 16","school_type_entity":"Grundschule","school_type":"Grundschule","phone_number":"+49 40 428 86 28 0","old_slug":null,"official_id":"5612","name":"Grundschule Heidhorst","lon":10.168694,"lat":53.516513,"homepage_url":null,"federal_state_code":"HH","fax_number":"+49 40 428 86 28 27","email_address":null,"city":"Hamburg"},{"zip_code":"21033","street":"Weidemoor 1","school_type_entity":"Sonderschule","school_type":"Sonderschule","phone_number":"+49 40 428 93 81-0","old_slug":null,"official_id":"5613","name":"Schule Weidemoor","lon":10.160052,"lat":53.512588,"homepage_url":null,"federal_state_code":"HH","fax_number":"+49 40 428 93 81-37","email_address":null,"city":"Hamburg"},{"zip_code":"21033","street":"Friedrich-Frank-Bogen 25","school_type_entity":"Grundschule","school_type":"Grundschule","phone_number":"+49 40 428 76 44-10","old_slug":null,"official_id":"5614","name":"Schule Friedrich-Frank-Bogen","lon":10.178256,"lat":53.492058,"homepage_url":null,"federal_state_code":"HH","fax_number":"+49 40 428 76 44-22","email_address":null,"city":"Hamburg"},{"zip_code":"21035","street":"Walter-Rothenburg-Weg 37","school_type_entity":"Grundschule","school_type":"Grundschule","phone_number":"+49 40 428 93 93-0","old_slug":null,"official_id":"5615","name":"Clara-Grunwald-Schule","lon":10.152028,"lat":53.485665,"homepage_url":null,"federal_state_code":"HH","fax_number":"+49 40 735 94 61 0","email_address":null,"city":"Hamburg"},{"zip_code":"21035","street":"Felix-Jud-Ring 29","school_type_entity":"Grundschule","school_type":"Grundschule","phone_number":"+49 40 428 93 33-0","old_slug":null,"official_id":"5616","name":"Adolph-Diesterweg-Schule","lon":10.147817,"lat":53.48722,"homepage_url":null,"federal_state_code":"HH","fax_number":"+49 40 428 93 33-40","email_address":null,"city":"Hamburg"},{"zip_code":"21033","street":"Mittlerer Landweg 48","school_type_entity":"Grundschule","school_type":"Grundschule","phone_number":"+49 40 428 96 67-0","old_slug":null,"official_id":"5630","name":"Schule Mittlerer Landweg","lon":10.132803,"lat":53.498522,"homepage_url":null,"federal_state_code":"HH","fax_number":"+49 40 731 13 63 22","email_address":null,"city":"Hamburg"},{"zip_code":"21039","street":"Kirchenstegel 12","school_type_entity":"Grundschule","school_type":"Grundschule","phone_number":"+49 40 428 96 31-0","old_slug":null,"official_id":"5631","name":"Schule Altengamme-Deich","lon":10.27047,"lat":53.428618,"homepage_url":null,"federal_state_code":"HH","fax_number":"+49 40 428 96 31-22","email_address":null,"city":"Hamburg"},{"zip_code":"21039","street":"Gramkowweg 5","school_type_entity":"Grundschule","school_type":"Grundschule","phone_number":"+49 40 428 96 32-0","old_slug":null,"official_id":"5634","name":"Schule Curslack-Neuengamme","lon":10.219731,"lat":53.448569,"homepage_url":null,"federal_state_code":"HH","fax_number":"+49 40 7 23 74-022","email_address":null,"city":"Hamburg"},{"zip_code":"21037","street":"Durchdeich 108","school_type_entity":"Grundschule","school_type":"Grundschule","phone_number":"+49 40 730 90 63 0","old_slug":null,"official_id":"5635","name":"Schule Fünfhausen-Warwisch","lon":10.133582,"lat":53.448519,"homepage_url":null,"federal_state_code":"HH","fax_number":"+49 40 730 90 63 22","email_address":null,"city":"Hamburg"},{"zip_code":"21037","street":"Elversweg 44","school_type_entity":"Grundschule","school_type":"Grundschule","phone_number":"+49 40 428 96 34-0","old_slug":null,"official_id":"5644","name":"Schule Ochsenwerder","lon":10.073588,"lat":53.471909,"homepage_url":null,"federal_state_code":"HH","fax_number":"+49 40 737 11 62 2","email_address":null,"city":"Hamburg"},{"zip_code":"21037","street":"Kirchenheerweg 223","school_type_entity":"Grundschule","school_type":"Grundschule","phone_number":"+49 40 428 96 35-0","old_slug":null,"official_id":"5648","name":"Schule Zollenspieker","lon":10.183876,"lat":53.400947,"homepage_url":null,"federal_state_code":"HH","fax_number":"+49 40 797 55 69 22","email_address":null,"city":"Hamburg"},{"zip_code":"22559","street":"Voßhagen 15","school_type_entity":"Stadtteilschule","school_type":"Stadtteilschule","phone_number":"+49 40 428 93 44-0","old_slug":null,"official_id":"5649","name":"Stadtteilschule Rissen","lon":9.752433,"lat":53.580404,"homepage_url":null,"federal_state_code":"HH","fax_number":"+49 40 428 93 44-22","email_address":null,"city":"Hamburg"},{"zip_code":"22149","street":"Kielkoppelstraße 16 d","school_type_entity":"Stadtteilschule","school_type":"Stadtteilschule","phone_number":"+49 40 428 86 45 0","old_slug":null,"official_id":"5650","name":"Stadtteilschule Altrahlstedt","lon":10.16932,"lat":53.587823,"homepage_url":null,"federal_state_code":"HH","fax_number":"+49 40 428 86 45 22","email_address":null,"city":"Hamburg"},{"zip_code":"21075","street":"Ehestorfer Weg 14","school_type_entity":"Stadtteilschule","school_type":"Stadtteilschule","phone_number":"+49 40 428 88 18 06","old_slug":null,"official_id":"5651","name":"Stadtteilschule Ehestorfer Weg","lon":9.951632,"lat":53.455744,"homepage_url":null,"federal_state_code":"HH","fax_number":"+49 40 428 88 18 73","email_address":null,"city":"Hamburg"},{"zip_code":"22769","street":"Eckernförder Straße 70","school_type_entity":"Stadtteilschule","school_type":"Stadtteilschule","phone_number":"+49 40 428 88 58 27","old_slug":null,"official_id":"5654","name":"Kurt-Tucholsky-Schule","lon":9.946527,"lat":53.566655,"homepage_url":null,"federal_state_code":"HH","fax_number":"+49 40 428 88 58 10","email_address":null,"city":"Hamburg"},{"zip_code":"22527","street":"Sportplatzring 73","school_type_entity":"Stadtteilschule","school_type":"Stadtteilschule","phone_number":"+49 40 428 89 80 1","old_slug":null,"official_id":"5655","name":"Stadtteilschule Stellingen","lon":9.930022,"lat":53.594201,"homepage_url":null,"federal_state_code":"HH","fax_number":"+49 40 428 89 82 36","email_address":null,"city":"Hamburg"},{"zip_code":"22179","street":"Hegholt 44","school_type_entity":"Stadtteilschule","school_type":"Stadtteilschule","phone_number":"+49 40 428 86 19 0","old_slug":null,"official_id":"5656","name":"Stadtteilschule Bramfeld","lon":10.081316,"lat":53.605936,"homepage_url":null,"federal_state_code":"HH","fax_number":"+49 40 428 86 19 22","email_address":null,"city":"Hamburg"},{"zip_code":"21033","street":"Richard-Linde-Weg 49","school_type_entity":"Stadtteilschule","school_type":"Stadtteilschule","phone_number":"+49 40 428 86 14 0","old_slug":null,"official_id":"5657","name":"Stadtteilschule Richard-Linde-Weg","lon":10.188463,"lat":53.500786,"homepage_url":null,"federal_state_code":"HH","fax_number":"+49 40 428 86 14 22","email_address":null,"city":"Hamburg"},{"zip_code":"21109","street":"Stübenhofer Weg 20","school_type_entity":"Stadtteilschule","school_type":"Stadtteilschule","phone_number":"+49 40 428 76 19 10","old_slug":null,"official_id":"5658","name":"Stadtteilschule Stübenhofer Weg","lon":10.014632,"lat":53.483074,"homepage_url":null,"federal_state_code":"HH","fax_number":"+49 40 428 76 19 22","email_address":null,"city":"Hamburg"},{"zip_code":"22549","street":"Goosacker 41","school_type_entity":"Stadtteilschule","school_type":"Stadtteilschule","phone_number":"+49 40 428 9304 - 20","old_slug":null,"official_id":"5659","name":"Stadtteilschule Flottbek","lon":9.849501,"lat":53.570968,"homepage_url":null,"federal_state_code":"HH","fax_number":"+49 40 428 9304 - 23","email_address":null,"city":"Hamburg"},{"zip_code":"22143","street":"Delingsdorfer Weg 6","school_type_entity":"Stadtteilschule","school_type":"Stadtteilschule","phone_number":"+49 40 428 86 63 50","old_slug":null,"official_id":"5660","name":"Stadtteilschule Oldenfelde","lon":10.15806,"lat":53.612642,"homepage_url":null,"federal_state_code":"HH","fax_number":"+49 40 428 86 63 69","email_address":null,"city":"Hamburg"},{"zip_code":"22547","street":"Veermoor 4","school_type_entity":"Stadtteilschule","school_type":"Stadtteilschule","phone_number":"+49 40 428 926-210","old_slug":null,"official_id":"5661","name":"Stadtteilschule Lurup","lon":9.874372,"lat":53.606741,"homepage_url":null,"federal_state_code":"HH","fax_number":"+49 40 428 926-222","email_address":null,"city":"Hamburg"},{"zip_code":"22049","street":"Tieloh 28","school_type_entity":"Stadtteilschule","school_type":"Stadtteilschule","phone_number":"+49 40 428 486-200","old_slug":null,"official_id":"5662","name":"Stadtteilschule Barmbek","lon":10.051575,"lat":53.592879,"homepage_url":null,"federal_state_code":"HH","fax_number":"+49 40 428 486-210","email_address":null,"city":"Hamburg"},{"zip_code":"20099","street":"Griesstraße 101","school_type_entity":"Stadtteilschule","school_type":"Stadtteilschule","phone_number":"+49 40 428 97 40","old_slug":null,"official_id":"5663","name":"Stadtteilschule Hamburg-Mitte","lon":10.061234,"lat":53.564459,"homepage_url":null,"federal_state_code":"HH","fax_number":"+49 40 428 97 44 15","email_address":null,"city":"Hamburg"},{"zip_code":"21073","street":"Am Soldatenfriedhof 21","school_type_entity":"Stadtteilschule","school_type":"Stadtteilschule","phone_number":"+49 40 428 93 24-0","old_slug":null,"official_id":"5664","name":"Lessing-Stadtteilschule","lon":9.976362,"lat":53.462811,"homepage_url":null,"federal_state_code":"HH","fax_number":"+49 40 428 93 24-20","email_address":null,"city":"Hamburg"},{"zip_code":"22455","street":"Sachsenweg 74","school_type_entity":"Stadtteilschule","school_type":"Stadtteilschule","phone_number":"+49 40 428 88 56 0","old_slug":null,"official_id":"5665","name":"Stadtteilschule Niendorf","lon":9.96027,"lat":53.641946,"homepage_url":null,"federal_state_code":"HH","fax_number":"+49 40 428 88 56 44","email_address":null,"city":"Hamburg"},{"zip_code":"20355","street":"Struenseestraße 20","school_type_entity":"Stadtteilschule","school_type":"Stadtteilschule","phone_number":"+49 40 428 84 32 00","old_slug":null,"official_id":"5667","name":"Stadtteilschule Am Hafen","lon":9.947586,"lat":53.54791,"homepage_url":null,"federal_state_code":"HH","fax_number":"+49 40 428 84 32 08","email_address":null,"city":"Hamburg"},{"zip_code":"21149","street":"Heidrand 5","school_type_entity":"Stadtteilschule","school_type":"Stadtteilschule","phone_number":"+49 40 428 88 64 0","old_slug":null,"official_id":"5669","name":"Stadtteilschule Fischbek/Falkenberg","lon":9.862042,"lat":53.46497,"homepage_url":null,"federal_state_code":"HH","fax_number":"+49 40 428 88 64 10","email_address":null,"city":"Hamburg"},{"zip_code":"22043","street":"Jenfelder Allee 53","school_type_entity":"Stadtteilschule","school_type":"Stadtteilschule","phone_number":"+49 40 428 87 30 3","old_slug":null,"official_id":"5670","name":"Otto-Hahn-Schule","lon":10.126154,"lat":53.580364,"homepage_url":null,"federal_state_code":"HH","fax_number":"+49 40 428 87 33 10","email_address":null,"city":"Hamburg"},{"zip_code":"21073","street":"Dempwolffstraße 7","school_type_entity":"Grundschule","school_type":"Grundschule","phone_number":"+49 40 428 96 08-0","old_slug":null,"official_id":"5701","name":"Schule Dempwolffstraße","lon":9.965013,"lat":53.458836,"homepage_url":null,"federal_state_code":"HH","fax_number":"+49 40 414 59 65 2","email_address":null,"city":"Hamburg"},{"zip_code":"21073","street":"Maretstraße 50","school_type_entity":"Stadtteilschule","school_type":"Stadtteilschule","phone_number":"+49 40 428 97-502","old_slug":null,"official_id":"5703","name":"Schule Maretstraße","lon":9.982173,"lat":53.453706,"homepage_url":null,"federal_state_code":"HH","fax_number":"+49 40 428 97-5212","email_address":null,"city":"Hamburg"},{"zip_code":"21075","street":"Grumbrechtstraße 63","school_type_entity":"Grundschule","school_type":"Grundschule","phone_number":"+49 40 428 96 09-0","old_slug":null,"official_id":"5704","name":"Schule Grumbrechtstraße","lon":9.955276,"lat":53.468524,"homepage_url":null,"federal_state_code":"HH","fax_number":"+49 40 79 18 81-22","email_address":null,"city":"Hamburg"},{"zip_code":"21077","street":"In der Alten Forst 1","school_type_entity":"Grundschule","school_type":"Grundschule","phone_number":"+49 40 428 96 69-0","old_slug":null,"official_id":"5706","name":"Schule In der Alten Forst","lon":9.93533,"lat":53.449069,"homepage_url":null,"federal_state_code":"HH","fax_number":"+49 40 70 38 57 575","email_address":null,"city":"Hamburg"},{"zip_code":"21079","street":"Kanzlerstraße 25","school_type_entity":"Grundschule","school_type":"Grundschule","phone_number":"+49 40 428 96 11-0","old_slug":null,"official_id":"5707","name":"Schule Rönneburg","lon":10.00758,"lat":53.439055,"homepage_url":null,"federal_state_code":"HH","fax_number":"+49 40 701 06 57 5","email_address":null,"city":"Hamburg"},{"zip_code":"21077","street":"Kapellenweg 63","school_type_entity":"Grundschule","school_type":"Grundschule","phone_number":"+49 40 428 86 94 0","old_slug":null,"official_id":"5708","name":"Schule Kapellenweg","lon":9.988124,"lat":53.445538,"homepage_url":null,"federal_state_code":"HH","fax_number":"+49 40 428 86 94 22","email_address":null,"city":"Hamburg"},{"zip_code":"21073","street":"Kerschensteinerstraße 16","school_type_entity":"Grundschule","school_type":"Grundschule","phone_number":"+49 40 428 88-390","old_slug":null,"official_id":"5710","name":"Schule Kerschensteinerstraße","lon":9.973429,"lat":53.461707,"homepage_url":null,"federal_state_code":"HH","fax_number":"+49 40 428 88 39 22","email_address":null,"city":"Hamburg"},{"zip_code":"21077","street":"Ernst-Bergeest-Weg 54","school_type_entity":"Grundschule","school_type":"Grundschule","phone_number":"+49 40 428 96 12-0","old_slug":"21077-schule-marmstorf","official_id":"5713","name":"Schule Marmstorf","lon":9.963522,"lat":53.438472,"homepage_url":"http://www.schule-marmstorf.hamburg.de/index.php","federal_state_code":"HH","fax_number":"+49 40 7 90 14-677","email_address":"schule-marmstorf@bsb.hamburg.de","city":"Hamburg"},{"zip_code":"21079","street":"Neuländer Elbdeich 241","school_type_entity":"Grundschule","school_type":"Grundschule","phone_number":"+49 40 428 96 13-0","old_slug":null,"official_id":"5714","name":"Schule Neuland","lon":10.03751,"lat":53.468637,"homepage_url":null,"federal_state_code":"HH","fax_number":"+49 40 428 96 13-22","email_address":null,"city":"Hamburg"},{"zip_code":"21079","street":"Scheeßeler Kehre 2","school_type_entity":"Grundschule","school_type":"Grundschule","phone_number":"+49 40 428 96 14-0","old_slug":null,"official_id":"5718","name":"Schule Scheeßeler Kehre","lon":9.987142,"lat":53.426707,"homepage_url":null,"federal_state_code":"HH","fax_number":"+49 40 428 96 14-22","email_address":null,"city":"Hamburg"},{"zip_code":"21075","street":"Weusthoffstraße 95","school_type_entity":"Grundschule","school_type":"Grundschule","phone_number":"+49 40 428 88 18 01","old_slug":null,"official_id":"5719","name":"Grundschule am Kiefernberg","lon":9.957321,"lat":53.461274,"homepage_url":null,"federal_state_code":"HH","fax_number":"+49 40 428 88 18 26","email_address":null,"city":"Hamburg"},{"zip_code":"21077","street":"Elfenwiese 3","school_type_entity":"Sonderschule","school_type":"Sonderschule","phone_number":"+49 40 428 98-801","old_slug":null,"official_id":"5722","name":"Schule Elfenwiese","lon":9.970486,"lat":53.439854,"homepage_url":null,"federal_state_code":"HH","fax_number":"+49 40 428 98-8210","email_address":null,"city":"Hamburg"},{"zip_code":"21077","street":"Hausbrucher Bahnhofstraße 19","school_type_entity":"Sonderschule","school_type":"Sonderschule","phone_number":"+49 40 4","old_slug":null,"official_id":"5723","name":"Schule Nymphenweg","lon":9.893733,"lat":53.474398,"homepage_url":null,"federal_state_code":"HH","fax_number":"+49 40 428 98-8510","email_address":null,"city":"Hamburg"},{"zip_code":"21109","street":"Rahmwerder Straße 3","school_type_entity":"Grundschule","school_type":"Grundschule","phone_number":"+49 40 428 76 21 0","old_slug":null,"official_id":"5742","name":"Elbinselschule","lon":10.019359,"lat":53.512144,"homepage_url":null,"federal_state_code":"HH","fax_number":"+49 40 428 76 21 1","email_address":null,"city":"Hamburg"},{"zip_code":"21129","street":"Estebogen 3","school_type_entity":"Grundschule","school_type":"Grundschule","phone_number":"+49 40 7560200","old_slug":null,"official_id":"5743","name":"Schule Cranz","lon":9.773472,"lat":53.529856,"homepage_url":null,"federal_state_code":"HH","fax_number":"+49 40 75602022","email_address":null,"city":"Hamburg"},{"zip_code":"21107","street":"Fährstraße 90","school_type_entity":"Grundschule","school_type":"Grundschule","phone_number":"+49 40 428 76 29-0","old_slug":null,"official_id":"5744","name":"Ganztagsschule Fährstraße","lon":9.98147,"lat":53.517166,"homepage_url":null,"federal_state_code":"HH","fax_number":"+49 40 428 76 29-22","email_address":null,"city":"Hamburg"},{"zip_code":"21147","street":"Am Johannisland 4","school_type_entity":"Grundschule","school_type":"Grundschule","phone_number":"+49 40 428 88 43 0","old_slug":null,"official_id":"5747","name":"Ganztagsgrundschule Am Johannisland","lon":9.854173,"lat":53.475995,"homepage_url":null,"federal_state_code":"HH","fax_number":"+49 40 428 88 43 22","email_address":null,"city":"Hamburg"},{"zip_code":"21147","street":"Lange Striepen 51","school_type_entity":"Grundschule","school_type":"Grundschule","phone_number":"+49 40 428 9334-0","old_slug":null,"official_id":"5749","name":"Grundschule An der Haake","lon":9.886229,"lat":53.476962,"homepage_url":null,"federal_state_code":"HH","fax_number":"+49 40 428 9334-48","email_address":null,"city":"Hamburg"},{"zip_code":"21129","street":"Arp-Schnitger-Stieg 19","school_type_entity":"Grundschule","school_type":"Grundschule","phone_number":"+49 40 428 96 58-0","old_slug":null,"official_id":"5753","name":"Schule Arp-Schnitger-Stieg","lon":9.810992,"lat":53.516199,"homepage_url":null,"federal_state_code":"HH","fax_number":"+49 40 317 98 47 0","email_address":null,"city":"Hamburg"},{"zip_code":"21147","street":"Francoper Straße 32","school_type_entity":"Grundschule","school_type":"Grundschule","phone_number":"+49 40 428 96 15-0","old_slug":null,"official_id":"5755","name":"Grundschule Neugraben - Offene Ganztagsgrundschule (GBS)","lon":9.864352,"lat":53.474585,"homepage_url":null,"federal_state_code":"HH","fax_number":"+49 40 790 14 22 2","email_address":null,"city":"Hamburg"},{"zip_code":"21107","street":"Rotenhäuser Damm 45","school_type_entity":"Grundschule","school_type":"Grundschule","phone_number":"+49 40 428 96 65-0","old_slug":null,"official_id":"5761","name":"Schule Rotenhäuser Damm","lon":9.991511,"lat":53.511335,"homepage_url":null,"federal_state_code":"HH","fax_number":"+49 40 485 09 75 2","email_address":null,"city":"Hamburg"},{"zip_code":"21149","street":"Schnuckendrift 21","school_type_entity":"Grundschule","school_type":"Grundschule","phone_number":"+49 40 428 96 16-0","old_slug":null,"official_id":"5762","name":"Schule Schnuckendrift","lon":9.838566,"lat":53.467194,"homepage_url":null,"federal_state_code":"HH","fax_number":"+49 40 428 96 16-61","email_address":null,"city":"Hamburg"},{"zip_code":"21109","street":"Stübenhofer Weg 20","school_type_entity":"Grundschule","school_type":"Grundschule","phone_number":"+49 40 428 96 66-0","old_slug":null,"official_id":"5763","name":"Grundschule Stübenhofer Weg","lon":10.014632,"lat":53.483074,"homepage_url":null,"federal_state_code":"HH","fax_number":"+49 40 750 60 22 2","email_address":null,"city":"Hamburg"},{"zip_code":"21149","street":"Ohrnsweg 52","school_type_entity":"Grundschule","school_type":"Grundschule","phone_number":"+49 40 428 96 17-0","old_slug":null,"official_id":"5768","name":"Schule Ohrnsweg","lon":9.817175,"lat":53.471494,"homepage_url":null,"federal_state_code":"HH","fax_number":"+49 40 428 96 17-29","email_address":null,"city":"Hamburg"},{"zip_code":"21109","street":"Karl-Arnold-Ring 13","school_type_entity":"Grundschule","school_type":"Grundschule","phone_number":"+49 40 428 96 61-0","old_slug":null,"official_id":"5773","name":"Schule an der Burgweide","lon":10.023942,"lat":53.486789,"homepage_url":null,"federal_state_code":"HH","fax_number":"+49 40 333 99 46 22","email_address":null,"city":"Hamburg"},{"zip_code":"22117","street":"Pergamentweg 1","school_type_entity":"Gymnasium","school_type":"Gymnasium","phone_number":"+4940 428 7648–30","old_slug":"22117-gymnasium-billstedt","official_id":"5800","name":"Kurt-Körber-Gymnasium","lon":10.12098,"lat":53.541154,"homepage_url":"http://www.gymnasium-billstedt.de","federal_state_code":"HH","fax_number":"+4940 428 7648–40","email_address":"gb@gybi.hh.schule.de","city":"Hamburg"},{"zip_code":"21075","street":"Alter Postweg 30","school_type_entity":"Gymnasium","school_type":"Gymnasium","phone_number":"+49 40 428 76 31 0","old_slug":null,"official_id":"5801","name":"Friedrich-Ebert-Gymnasium","lon":9.965082,"lat":53.464992,"homepage_url":null,"federal_state_code":"HH","fax_number":"+49 40 428 76 31 22","email_address":null,"city":"Hamburg"},{"zip_code":"22041","street":"Witthöfftstraße 8","school_type_entity":"Gymnasium","school_type":"Gymnasium","phone_number":"+49 40 428 76 22 10","old_slug":null,"official_id":"5802","name":"Matthias-Claudius-Gymnasium","lon":10.072872,"lat":53.57298,"homepage_url":null,"federal_state_code":"HH","fax_number":"+49 40 428 76 22 22","email_address":null,"city":"Hamburg"},{"zip_code":"21149","street":"Falkenbergsweg 5","school_type_entity":"Gymnasium","school_type":"Gymnasium","phone_number":"+49 40 428 93 35-0","old_slug":null,"official_id":"5803","name":"Gymnasium Süderelbe","lon":9.863995,"lat":53.470083,"homepage_url":null,"federal_state_code":"HH","fax_number":"+49 40 428 93 35-50","email_address":null,"city":"Hamburg"},{"zip_code":"21109","street":"Krieterstraße 5","school_type_entity":"Gymnasium","school_type":"Gymnasium","phone_number":"+49 40 428 87 70 1","old_slug":null,"official_id":"5807","name":"Helmut-Schmidt-Gymnasium","lon":10.01352,"lat":53.499773,"homepage_url":null,"federal_state_code":"HH","fax_number":"+49 40 428 87 72 27","email_address":null,"city":"Hamburg"},{"zip_code":"22559","street":"Voßhagen 15","school_type_entity":"Gymnasium","school_type":"Gymnasium","phone_number":"+49 40 428 93 14-0","old_slug":null,"official_id":"5809","name":"Gymnasium Rissen","lon":9.752433,"lat":53.580404,"homepage_url":null,"federal_state_code":"HH","fax_number":"+49 40 428 93 14-28","email_address":null,"city":"Hamburg"},{"zip_code":"22337","street":"Struckholt 27","school_type_entity":"Gymnasium","school_type":"Gymnasium","phone_number":"+49 40 428 93 36-0","old_slug":null,"official_id":"5810","name":"Albert-Schweitzer-Gymnasium","lon":10.031383,"lat":53.628066,"homepage_url":null,"federal_state_code":"HH","fax_number":"+49 40 428 93 36-17","email_address":null,"city":"Hamburg"},{"zip_code":"22335","street":"Erdkampsweg 89","school_type_entity":"Gymnasium","school_type":"Gymnasium","phone_number":"+49 40 428 95 50","old_slug":null,"official_id":"5811","name":"Gymnasium Alstertal","lon":10.018569,"lat":53.632737,"homepage_url":null,"federal_state_code":"HH","fax_number":"+49 40 428 95 53 1","email_address":null,"city":"Hamburg"},{"zip_code":"22359","street":"Im Regestall 25","school_type_entity":"Gymnasium","school_type":"Gymnasium","phone_number":"+49 40 428 93 37-0","old_slug":"22359-gymnasium-buckhorn","official_id":"5812","name":"Gymnasium Buckhorn","lon":10.151184,"lat":53.66452,"homepage_url":"http://www.hh.schule.de/gybu/","federal_state_code":"HH","fax_number":"+49 40 428 93 37-38","email_address":"info@buckhorn.de","city":"Hamburg"},{"zip_code":"22605","street":"Otto-Ernst-Straße 34","school_type_entity":"Gymnasium","school_type":"Gymnasium","phone_number":"+49 40 428 88-280","old_slug":"22605-christianeum","official_id":"5813","name":"Christianeum","lon":9.874134,"lat":53.55805,"homepage_url":"http://www.hh.schule.de/christianeum/welcome.htm","federal_state_code":"HH","fax_number":"+49 40 428 88 28 31","email_address":"uwilms@lycosmail.com","city":"Hamburg"},{"zip_code":"21075","street":"Triftstraße 43","school_type_entity":"Gymnasium","school_type":"Gymnasium","phone_number":"+49 40 428 88-710","old_slug":null,"official_id":"5814","name":"Heisenberg-Gymnasium","lon":9.944168,"lat":53.457194,"homepage_url":null,"federal_state_code":"HH","fax_number":"+49 40 428 88-7110","email_address":null,"city":"Hamburg"},{"zip_code":"22359","street":"Im Allhorn 45","school_type_entity":"Gymnasium","school_type":"Gymnasium","phone_number":"+49 40 428 969 30","old_slug":null,"official_id":"5816","name":"Walddörfer-Gymnasium","lon":10.175431,"lat":53.65189,"homepage_url":null,"federal_state_code":"HH","fax_number":"+49 40 428 969 322","email_address":null,"city":"Hamburg"},{"zip_code":"20099","street":"Rostocker Straße 41","school_type_entity":"Abend-Gymnasium","school_type":"Abendgymnasiuym","phone_number":"+49 40 428 974-21","old_slug":null,"official_id":"5818","name":"Abendschule St. Georg","lon":10.015731,"lat":53.557215,"homepage_url":null,"federal_state_code":"HH","fax_number":"+49 40 428 974-525","email_address":null,"city":"Hamburg"},{"zip_code":"20355","street":"Holstenglacis 6","school_type_entity":"Abend-Gymnasium","school_type":"Abendgymnasiuym","phone_number":"+49 40 428 986-01","old_slug":null,"official_id":"5819","name":"Abendschule Vor dem Holstentor","lon":9.977063,"lat":53.558032,"homepage_url":null,"federal_state_code":"HH","fax_number":"+49 40 428 986-210","email_address":null,"city":"Hamburg"},{"zip_code":"22179","street":"Höhnkoppelort 24","school_type_entity":"Gymnasium","school_type":"Gymnasium","phone_number":"+49 40 428 8629-0","old_slug":"22179-johannes-brahms-gymnasium","official_id":"5822","name":"Johannes-Brahms-Gymnasium","lon":10.082888,"lat":53.612768,"homepage_url":"http://www.johannes-brahms-gymnasium.hamburg.de","federal_state_code":"HH","fax_number":"+49 40 428 8629-30","email_address":"johannes-brahms-gymnasium@bbs.hamburg.de","city":"Hamburg"},{"zip_code":"22529","street":"Corveystraße 6","school_type_entity":"Gymnasium","school_type":"Gymnasium","phone_number":"+49 40 428 86 79 0","old_slug":"22529-gymnasium-corveystrasse","official_id":"5823","name":"Gymnasium Corveystraße","lon":9.969265,"lat":53.596781,"homepage_url":"http://www.hh.schule.de/GyCor","federal_state_code":"HH","fax_number":"+49 40 428 86 79 31","email_address":"nevado@gmx.de","city":"Hamburg"},{"zip_code":"22547","street":"Rispenweg 28","school_type_entity":"Gymnasium","school_type":"Gymnasium","phone_number":"+49 40 428 93 38-0","old_slug":null,"official_id":"5824","name":"Goethe-Gymnasium","lon":9.892536,"lat":53.598487,"homepage_url":null,"federal_state_code":"HH","fax_number":"+49 40 428 93 38-40","email_address":null,"city":"Hamburg"},{"zip_code":"22549","street":"Knabeweg 3","school_type_entity":"Gymnasium","school_type":"Gymnasium","phone_number":"+49 40 428 88 52 0","old_slug":null,"official_id":"5825","name":"Lise-Meitner-Gymnasium","lon":9.856687,"lat":53.573042,"homepage_url":null,"federal_state_code":"HH","fax_number":"+49 40 428 88 52 33","email_address":null,"city":"Hamburg"},{"zip_code":"22455","street":"Sachsenweg 76","school_type_entity":"Gymnasium","school_type":"Gymnasium","phone_number":"+49 40 428 96 68-0","old_slug":"22455-gymnasium-ohmoor","official_id":"5829","name":"Gymnasium Ohmoor","lon":9.960346,"lat":53.642079,"homepage_url":"http://www.ohmoor.de","federal_state_code":"HH","fax_number":"+49 40 5 55 89-110","email_address":"sekretariat@ohmoor.de","city":"Hamburg"},{"zip_code":"22763","street":"Bleickenallee 5","school_type_entity":"Gymnasium","school_type":"Gymnasium","phone_number":"+49 40 428 970-0","old_slug":null,"official_id":"5830","name":"Gymnasium Altona","lon":9.921174,"lat":53.550615,"homepage_url":null,"federal_state_code":"HH","fax_number":"+49 40 428 970-233","email_address":null,"city":"Hamburg"},{"zip_code":"22587","street":"Oesterleystraße 27","school_type_entity":"Gymnasium","school_type":"Gymnasium","phone_number":"+49 40 428 971-0","old_slug":"22587-gymnasium-blankenese","official_id":"5831","name":"Gymnasium Blankenese","lon":9.807773,"lat":53.562704,"homepage_url":"http://www.gymnasium-blankenese.de/","federal_state_code":"HH","fax_number":"+49 40 428 971-244","email_address":"webmaster@gybla.de","city":"Hamburg"},{"zip_code":"21035","street":"Walter-Rothenburg-Weg 41","school_type_entity":"Gymnasium","school_type":"Gymnasium","phone_number":"+49 40 428 93 39-0","old_slug":null,"official_id":"5832","name":"Gymnasium Allermöhe","lon":10.153092,"lat":53.485845,"homepage_url":null,"federal_state_code":"HH","fax_number":"+49 40 428 93 39-10","email_address":null,"city":"Hamburg"},{"zip_code":"22307","street":"Langenfort 5","school_type_entity":"Gymnasium","school_type":"Gymnasium","phone_number":"+49 40 428 86 86 0","old_slug":null,"official_id":"5834","name":"Margaretha-Rothe-Gymnasium","lon":10.042722,"lat":53.599295,"homepage_url":null,"federal_state_code":"HH","fax_number":"+49 40 428 86 86 19","email_address":null,"city":"Hamburg"},{"zip_code":"22417","street":"Fritz-Schumacher-Allee 200","school_type_entity":"Gymnasium","school_type":"Gymnasium","phone_number":"+49 40 428 9309-0","old_slug":null,"official_id":"5835","name":"Gymnasium Heidberg","lon":10.030969,"lat":53.669934,"homepage_url":null,"federal_state_code":"HH","fax_number":"+49 40 428 9309-25","email_address":null,"city":"Hamburg"},{"zip_code":"22143","street":"Birrenkovenallee 12","school_type_entity":"Gymnasium","school_type":"Gymnasium","phone_number":"+49 40 428 86 63-01","old_slug":null,"official_id":"5837","name":"Gymnasium Oldenfelde","lon":10.159506,"lat":53.610609,"homepage_url":null,"federal_state_code":"HH","fax_number":"+49 40 428 86 63-30","email_address":null,"city":"Hamburg"},{"zip_code":"21031","street":"Schulenburgring 4","school_type_entity":"Gymnasium","school_type":"Gymnasium","phone_number":"+49 40 428 95 40","old_slug":"21031-gymnasium-bornbrook","official_id":"5838","name":"Gymnasium Bornbrook","lon":10.194434,"lat":53.50786,"homepage_url":"http://www.gymbo.net/","federal_state_code":"HH","fax_number":"+49 40 428 95 41 9","email_address":"gymnasium-bornbrook@hamburg.de","city":"Hamburg"},{"zip_code":"21077","street":"Am Pavillon 15","school_type_entity":"Gymnasium","school_type":"Gymnasium","phone_number":"+49 40 428 9341-0","old_slug":null,"official_id":"5839","name":"Immanuel-Kant-Gymnasium","lon":9.967041,"lat":53.431565,"homepage_url":null,"federal_state_code":"HH","fax_number":"+49 40 428 9341-44","email_address":null,"city":"Hamburg"},{"zip_code":"21079","street":"Rönneburger Straße 50","school_type_entity":"Gymnasium","school_type":"Gymnasium","phone_number":"+49 40 428 96 18-0","old_slug":null,"official_id":"5840","name":"Alexander-von-Humboldt-Gymnasium","lon":9.993343,"lat":53.438785,"homepage_url":null,"federal_state_code":"HH","fax_number":"+49 40 645 39 13 6","email_address":null,"city":"Hamburg"},{"zip_code":"22587","street":"Willhöden 74","school_type_entity":"Gymnasium","school_type":"Gymnasium","phone_number":"+49 40 428 93 42-0","old_slug":null,"official_id":"5841","name":"Marion Dönhoff Gymnasium","lon":9.806883,"lat":53.57141,"homepage_url":null,"federal_state_code":"HH","fax_number":"+49 40 428 93 42-15","email_address":null,"city":"Hamburg"},{"zip_code":"20253","street":"Christian-Förster-Straße 19","school_type_entity":"Gymnasium","school_type":"Gymnasium","phone_number":"+49 40 428 88 48 0","old_slug":null,"official_id":"5842","name":"Gymnasium Hoheluft","lon":9.963209,"lat":53.582732,"homepage_url":null,"federal_state_code":"HH","fax_number":"+49 40 428 88 48 10","email_address":null,"city":"Hamburg"},{"zip_code":"20249","street":"Hegestraße 35","school_type_entity":"Gymnasium","school_type":"Gymnasium","phone_number":"+49 40 428 972 - 0","old_slug":null,"official_id":"5844","name":"Gymnasium Eppendorf","lon":9.9844,"lat":53.584888,"homepage_url":null,"federal_state_code":"HH","fax_number":"+49 40 428 972 - 231","email_address":null,"city":"Hamburg"},{"zip_code":"21029","street":"Hermann-Distel-Straße 25","school_type_entity":"Gymnasium","school_type":"Gymnasium","phone_number":"+49 40 428 93 43-0","old_slug":null,"official_id":"5845","name":"Hansa-Gymnasium Bergedorf","lon":10.220179,"lat":53.49337,"homepage_url":null,"federal_state_code":"HH","fax_number":"+49 40 428 93 43-50","email_address":null,"city":"Hamburg"},{"zip_code":"20259","street":"Kaiser-Friedrich-Ufer 6","school_type_entity":"Gymnasium","school_type":"Gymnasium","phone_number":"+49 40 428 01 23 33","old_slug":null,"official_id":"5846","name":"Gymnasium Kaiser-Friedrich-Ufer","lon":9.966373,"lat":53.573406,"homepage_url":null,"federal_state_code":"HH","fax_number":"+49 40 428 01 19 56","email_address":null,"city":"Hamburg"},{"zip_code":"21031","street":"An der Twiete 23","school_type_entity":"Gymnasium","school_type":"Gymnasium","phone_number":"+49 40 428 87-601","old_slug":null,"official_id":"5847","name":"Gymnasium Lohbrügge","lon":10.203271,"lat":53.502654,"homepage_url":null,"federal_state_code":"HH","fax_number":"+49 40 428 87-6230","email_address":null,"city":"Hamburg"},{"zip_code":"21029","street":"Reinbeker Weg 76","school_type_entity":"Gymnasium","school_type":"Gymnasium","phone_number":"+49 40 428 93 45-0","old_slug":"21029-luisen-gymnasium","official_id":"5848","name":"Luisen-Gymnasium Bergedorf","lon":10.228069,"lat":53.49231,"homepage_url":"http://www.halloluise.de/","federal_state_code":"HH","fax_number":"+49 40 7 24 16-210","email_address":"luisen-gymnasium@halloluise.de","city":"Hamburg"},{"zip_code":"22399","street":"Müssenredder 59","school_type_entity":"Gymnasium","school_type":"Gymnasium","phone_number":"+49 40 428 93 15-0","old_slug":null,"official_id":"5849","name":"Carl-von-Ossietzky-Gymnasium","lon":10.068211,"lat":53.655215,"homepage_url":null,"federal_state_code":"HH","fax_number":"+49 40 427 96 79 16","email_address":null,"city":"Hamburg"},{"zip_code":"22395","street":"Alsterredder 26","school_type_entity":"Gymnasium","school_type":"Gymnasium","phone_number":"+49 40 428 93 46-0","old_slug":null,"official_id":"5850","name":"Gymnasium Oberalster","lon":10.101151,"lat":53.658849,"homepage_url":null,"federal_state_code":"HH","fax_number":"+49 40 428 93 46-22","email_address":null,"city":"Hamburg"},{"zip_code":"20537","street":"Ebelingplatz 8","school_type_entity":"Gymnasium","school_type":"Gymnasium","phone_number":"+49 40 428 85 10 4","old_slug":null,"official_id":"5853","name":"Gymnasium Hamm","lon":10.046999,"lat":53.554569,"homepage_url":null,"federal_state_code":"HH","fax_number":"+49 40 428 85 14 00","email_address":null,"city":"Hamburg"},{"zip_code":"21129","street":"Norderschulweg 18","school_type_entity":"Gymnasium","school_type":"Gymnasium","phone_number":"+49 40 428 859 03","old_slug":null,"official_id":"5856","name":"Gymnasium Finkenwerder","lon":9.874973,"lat":53.531603,"homepage_url":null,"federal_state_code":"HH","fax_number":"+49 40 428 85 93 10","email_address":null,"city":"Hamburg"},{"zip_code":"22527","street":"Dörpsweg 10","school_type_entity":"Gymnasium","school_type":"Gymnasium","phone_number":"+49 40 428 96 36-0","old_slug":"22527-gymnasium-doerpsweg","official_id":"5859","name":"Gymnasium Dörpsweg","lon":9.911962,"lat":53.607876,"homepage_url":"http://www.doerpsweg.de","federal_state_code":"HH","fax_number":"+49 40 571 94  23 7","email_address":"webteam@doerpsweg.de","city":"Hamburg"},{"zip_code":"22527","street":"Wegenkamp 3","school_type_entity":"Gymnasium","school_type":"Gymnasium","phone_number":"+49 40 428 93 47-0","old_slug":"22527-albrecht-thaer-gymnasium","official_id":"5860","name":"Albrecht-Thaer-Gymnasium","lon":9.925237,"lat":53.600474,"homepage_url":"http://www.hh.schule.de/ath/","federal_state_code":"HH","fax_number":"+49 40 428 93 47-30","email_address":"ca@ath.hh.schule.de","city":"Hamburg"},{"zip_code":"22041","street":"Neumann-Reichardt-Straße 20","school_type_entity":"Gymnasium","school_type":"Gymnasium","phone_number":"+49 40 428 820-01","old_slug":null,"official_id":"5862","name":"Charlotte-Paulsen-Gymnasium","lon":10.078481,"lat":53.57252,"homepage_url":null,"federal_state_code":"HH","fax_number":"+49 40 428 820-210","email_address":null,"city":"Hamburg"},{"zip_code":"20144","street":"Bundesstraße 78","school_type_entity":"Gymnasium","school_type":"Gymnasium","phone_number":"+49 40 428 88 05-0","old_slug":null,"official_id":"5863","name":"Emilie-Wüstenfeld-Gymnasium","lon":9.972009,"lat":53.570918,"homepage_url":null,"federal_state_code":"HH","fax_number":"+49 40 428 88 05-42","email_address":null,"city":"Hamburg"},{"zip_code":"20144","street":"Bogenstraße 32","school_type_entity":"Gymnasium","school_type":"Gymnasium","phone_number":"+49 40 428 981-0","old_slug":"20144-helene-lange-gymnasium","official_id":"5864","name":"Helene Lange Gymnasium","lon":9.974617,"lat":53.57365,"homepage_url":"http://www.hlg-hamburg.de/","federal_state_code":"HH","fax_number":"+49 40 428 981-210","email_address":"info@hlg-hamburg.de","city":"Hamburg"},{"zip_code":"20099","street":"Westphalensweg 7","school_type_entity":"Gymnasium","school_type":"Gymnasium","phone_number":"+49 40 428 821 0","old_slug":null,"official_id":"5866","name":"Gymnasium Klosterschule","lon":10.025142,"lat":53.555768,"homepage_url":null,"federal_state_code":"HH","fax_number":"+49 40 428 821 210","email_address":null,"city":"Hamburg"},{"zip_code":"22081","street":"Finkenau 42","school_type_entity":"Gymnasium","school_type":"Gymnasium","phone_number":"+49 40 428 88 47 0","old_slug":null,"official_id":"5868","name":"Gymnasium Lerchenfeld","lon":10.032816,"lat":53.5684,"homepage_url":null,"federal_state_code":"HH","fax_number":"+49 40 428 88 47 40","email_address":null,"city":"Hamburg"},{"zip_code":"22147","street":"Scharbeutzer Straße 36","school_type_entity":"Gymnasium","school_type":"Gymnasium","phone_number":"+49 40 428 86-650","old_slug":null,"official_id":"5869","name":"Gymnasium Rahlstedt","lon":10.145879,"lat":53.600743,"homepage_url":null,"federal_state_code":"HH","fax_number":"+49 40 428 86-6540","email_address":null,"city":"Hamburg"},{"zip_code":"20149","street":"Klosterstieg 17","school_type_entity":"Gymnasium","school_type":"Gymnasium","phone_number":"+49 40 428 93 16-0","old_slug":null,"official_id":"5872","name":"Wilhelm-Gymnasium","lon":9.99661,"lat":53.573991,"homepage_url":null,"federal_state_code":"HH","fax_number":"+49 40 428 93 16-20","email_address":null,"city":"Hamburg"},{"zip_code":"22765","street":"Max-Brauer-Allee 83","school_type_entity":"Gymnasium","school_type":"Gymnasium","phone_number":"+49 40 428 88 06 0","old_slug":null,"official_id":"5881","name":"Gymnasium Allee","lon":9.940882,"lat":53.554851,"homepage_url":null,"federal_state_code":"HH","fax_number":"+49 40 428 88 06 19","email_address":null,"city":"Hamburg"},{"zip_code":"22453","street":"Bondenwald 14","school_type_entity":"Gymnasium","school_type":"Gymnasium","phone_number":"+49 40 428 88-250","old_slug":"22453-gymnasium-bondenwald","official_id":"5882","name":"Gymnasium Bondenwald","lon":9.938782,"lat":53.622366,"homepage_url":"http://www.hh.schule.de/gybond/","federal_state_code":"HH","fax_number":"+49 40 428 88-2549","email_address":"hcarstensen@t-online.de","city":"Hamburg"},{"zip_code":"22159","street":"Swebenhöhe 50","school_type_entity":"Gymnasium","school_type":"Gymnasium","phone_number":"+49 40 428 93 48-0","old_slug":null,"official_id":"5885","name":"Gymnasium Farmsen","lon":10.109818,"lat":53.612011,"homepage_url":null,"federal_state_code":"HH","fax_number":"+49 40 428 93 48-22","email_address":null,"city":"Hamburg"},{"zip_code":"22301","street":"Maria-Louisen-Straße 114","school_type_entity":"Gymnasium","school_type":"Gymnasium","phone_number":"+49 40 428 827 0","old_slug":"22301-gelehrtenschule-des-johanneums","official_id":"5886","name":"Gelehrtenschule des Johanneums","lon":10.006038,"lat":53.589963,"homepage_url":"http://www.johanneum-hamburg.de/","federal_state_code":"HH","fax_number":"+49 40 428 827 210","email_address":"info@johanneum-hamburg.de","city":"Hamburg"},{"zip_code":"22605","street":"Hochrad 2","school_type_entity":"Gymnasium","school_type":"Gymnasium","phone_number":"+49 40 428 93 49-0","old_slug":"22605-gymnasium-hochrad","official_id":"5887","name":"Gymnasium Hochrad","lon":9.876215,"lat":53.554025,"homepage_url":"http://www.hh.shuttle.de/hh/gyhr/","federal_state_code":"HH","fax_number":"+49 40 428 93 49-50","email_address":"hochrad@gyhr.hh.schule.de","city":"Hamburg"},{"zip_code":"22297","street":"Wilhelm-Metzger-Straße 4","school_type_entity":"Gymnasium","school_type":"Gymnasium","phone_number":"+49 40 428 86-890","old_slug":null,"official_id":"5888","name":"Heilwig-Gymnasium","lon":9.998888,"lat":53.604958,"homepage_url":null,"federal_state_code":"HH","fax_number":"+49 40 428 86-8910","email_address":null,"city":"Hamburg"},{"zip_code":"22145","street":"Schierenberg 60","school_type_entity":"Gymnasium","school_type":"Gymnasium","phone_number":"+49 40 428 86 38 0","old_slug":null,"official_id":"5890","name":"Gymnasium Meiendorf","lon":10.150905,"lat":53.624881,"homepage_url":null,"federal_state_code":"HH","fax_number":"+49 40 428 86 38 47","email_address":null,"city":"Hamburg"},{"zip_code":"22605","street":"Walderseestraße 99","school_type_entity":"Gymnasium","school_type":"Gymnasium","phone_number":"+49 40 428 93 51-0","old_slug":null,"official_id":"5891","name":"Gymnasium Othmarschen","lon":9.883955,"lat":53.554719,"homepage_url":null,"federal_state_code":"HH","fax_number":"+49 40 428 93 51-42","email_address":null,"city":"Hamburg"},{"zip_code":"22399","street":"Harksheider Straße 70","school_type_entity":"Gymnasium","school_type":"Gymnasium","phone_number":"+49 40 428 86 81 0","old_slug":null,"official_id":"5894","name":"Heinrich-Heine-Gymnasium","lon":10.073511,"lat":53.665243,"homepage_url":null,"federal_state_code":"HH","fax_number":"+49 40 428 86 81 10","email_address":null,"city":"Hamburg"},{"zip_code":"22175","street":"Am Damm 47","school_type_entity":"Gymnasium","school_type":"Gymnasium","phone_number":"+49 40 428 93 52-0","old_slug":null,"official_id":"5895","name":"Gymnasium Grootmoor","lon":10.097457,"lat":53.630031,"homepage_url":null,"federal_state_code":"HH","fax_number":"+49 40 428 93 52-99","email_address":null,"city":"Hamburg"},{"zip_code":"22397","street":"Sthamerstraße 55","school_type_entity":"Gymnasium","school_type":"Gymnasium","phone_number":"+49 40 428 93 53-0","old_slug":null,"official_id":"5896","name":"Gymnasium Ohlstedt","lon":10.140887,"lat":53.693403,"homepage_url":null,"federal_state_code":"HH","fax_number":"+49 40 605 80 31 0","email_address":null,"city":"Hamburg"},{"zip_code":"22179","street":"Turnierstieg 24","school_type_entity":"Gymnasium","school_type":"Gymnasium","phone_number":"+49 40 428 9354-0","old_slug":"22179-gymnasium-osterbek","official_id":"5897","name":"Gymnasium Osterbek","lon":10.093516,"lat":53.600184,"homepage_url":"http://www.osterbek.hamburg.de","federal_state_code":"HH","fax_number":"+49 40 428 9354-55","email_address":"info@osterbek.de","city":"Hamburg"},{"zip_code":"22043","street":"Holstenhofweg 86","school_type_entity":"Gymnasium","school_type":"Gymnasium","phone_number":"+49 40 4","old_slug":null,"official_id":"5898","name":"Gymnasium Marienthal","lon":10.1066,"lat":53.566721,"homepage_url":null,"federal_state_code":"HH","fax_number":"+49 40 428 86-3131","email_address":null,"city":"Hamburg"},{"zip_code":"22339","street":"Hummelsbüttler Hauptstraße 107","school_type_entity":"Gymnasium","school_type":"Gymnasium","phone_number":"+49 40 428 93 55-0","old_slug":null,"official_id":"5899","name":"Gymnasium Hummelsbüttel","lon":10.040988,"lat":53.647333,"homepage_url":null,"federal_state_code":"HH","fax_number":"+49 40 5 38 90 6-44","email_address":null,"city":"Hamburg"},{"zip_code":"20097","street":"Norderstraße 163","school_type_entity":"Gymnasium","school_type":"Gymnasium","phone_number":"+49 40 21 11 12-0","old_slug":null,"official_id":"7703","name":"Privates Gymnasium Brecht","lon":10.018207,"lat":53.551065,"homepage_url":null,"federal_state_code":"HH","fax_number":"+49 40 21 11 12-0","email_address":null,"city":"Hamburg"},{"zip_code":"22395","street":"Bergstedter Chaussee 205","school_type_entity":"Sonderschule","school_type":"Sonderschule","phone_number":"+49 40 60 4428-0","old_slug":null,"official_id":"7706","name":"Christophorus-Schule","lon":10.13557,"lat":53.675663,"homepage_url":null,"federal_state_code":"HH","fax_number":"+49 40 60 4428-25","email_address":null,"city":"Hamburg"},{"zip_code":"22609","street":"Quellental 25","school_type_entity":"Sonderschule","school_type":"Sonderschule","phone_number":"+49 40 8 19 92-640","old_slug":null,"official_id":"7707","name":"Raphael-Schule","lon":9.861204,"lat":53.552359,"homepage_url":null,"federal_state_code":"HH","fax_number":"+49 40 8 19 92-643","email_address":null,"city":"Hamburg"},{"zip_code":"21029","street":"August-Bebel-Straße 196","school_type_entity":"Grundschule","school_type":"Grundschule","phone_number":"72 10 64 22","old_slug":null,"official_id":"7708","name":"Montessorischule Hamburg-Bergedorf","lon":10.241404,"lat":53.480937,"homepage_url":null,"federal_state_code":"HH","fax_number":"+49 40 7210 6427","email_address":null,"city":"Hamburg"},{"zip_code":"20097","street":"Norderstraße 163","school_type_entity":"Stadtteilschule","school_type":"Stadtteilschule","phone_number":"+49 40 21 11 12-0","old_slug":null,"official_id":"7714","name":"Private Stadtteilschule Brecht","lon":10.018207,"lat":53.551065,"homepage_url":null,"federal_state_code":"HH","fax_number":"+49 40 21 11 12-20","email_address":null,"city":"Hamburg"},{"zip_code":"20097","street":"Norderstraße 163","school_type_entity":"Grundschule","school_type":"Grundschule","phone_number":"+49 40 21 11 12-0","old_slug":null,"official_id":"7715","name":"Private Grundschule Brecht","lon":10.018207,"lat":53.551065,"homepage_url":null,"federal_state_code":"HH","fax_number":"+49 40 21 11 12-20","email_address":null,"city":"Hamburg"},{"zip_code":"20099","street":"Rostocker Straße 62","school_type_entity":"Stadtteilschule","school_type":"Stadtteilschule","phone_number":"+49 40 24 70 87","old_slug":null,"official_id":"7801","name":"Stadtteilschule St. Georg","lon":10.016922,"lat":53.5577,"homepage_url":null,"federal_state_code":"HH","fax_number":"+49 40 24 68 69","email_address":null,"city":"Hamburg"},{"zip_code":"22769","street":"Heinrichstraße 14","school_type_entity":"Grundschule","school_type":"Grundschule","phone_number":"+49 40 41 35 94 44","old_slug":null,"official_id":"7909","name":"Christian-Morgenstern-Schule (Grundschule)","lon":9.957599,"lat":53.566061,"homepage_url":null,"federal_state_code":"HH","fax_number":null,"email_address":null,"city":"Hamburg"},{"zip_code":"22149","street":"Schimmelreiterweg 11","school_type_entity":"Stadtteilschule","school_type":"Stadtteilschule","phone_number":"+49 40 6690 99-45","old_slug":null,"official_id":"7910","name":"Neue Schule Hamburg","lon":10.181015,"lat":53.591862,"homepage_url":null,"federal_state_code":"HH","fax_number":null,"email_address":null,"city":"Hamburg"},{"zip_code":"22765","street":"Bei der Osterkirche 17","school_type_entity":"Grundschule","school_type":"Grundschule","phone_number":"+49 40 2","old_slug":null,"official_id":"7911","name":"Bugenhagen-Schule Ottensen, Evangelische Grundschule an der Osterkirche","lon":9.932323,"lat":53.555101,"homepage_url":null,"federal_state_code":"HH","fax_number":null,"email_address":null,"city":"Hamburg"},{"zip_code":"22307","street":"Wittenkamp 15","school_type_entity":"Gymnasium","school_type":"Gymnasium","phone_number":"+49 40 226 223 530","old_slug":null,"official_id":"7915","name":"Alsterring Gymnasium","lon":10.048367,"lat":53.597049,"homepage_url":null,"federal_state_code":"HH","fax_number":"+49 40 226 223 531","email_address":null,"city":"Hamburg"},{"zip_code":"20357","street":"Schäferkampsallee 27","school_type_entity":"Grundschule","school_type":"Grundschule","phone_number":"+49 40 533 08 37-0","old_slug":null,"official_id":"7916","name":"Monaddrei-Schule Hamburg","lon":9.967796,"lat":53.568261,"homepage_url":null,"federal_state_code":"HH","fax_number":null,"email_address":null,"city":"Hamburg"},{"zip_code":"22337","street":"Alsterdorfer Straße 523","school_type_entity":"Grundschule","school_type":"Grundschule","phone_number":"+49 40 529 85 157","old_slug":null,"official_id":"7917","name":"Zukunftsschule Alsterpalais (Grundschule)","lon":10.027869,"lat":53.618202,"homepage_url":null,"federal_state_code":"HH","fax_number":"+49 40 529 85 167","email_address":null,"city":"Hamburg"},{"zip_code":"20097","street":"Wendenstraße 35","school_type_entity":"Grundschule","school_type":"Grundschule","phone_number":"32537050","old_slug":null,"official_id":"7918","name":"Bilinguale Grundschule PHORMS Hamburg","lon":10.02699,"lat":53.547458,"homepage_url":null,"federal_state_code":"HH","fax_number":"+49 40 32537050","email_address":null,"city":"Hamburg"},{"zip_code":"22453","street":"Brödermannsweg 17","school_type_entity":"Grundschule","school_type":"Grundschule","phone_number":"67381670","old_slug":null,"official_id":"7920","name":"Moderne Schule Hamburg (Grundschule)","lon":9.978596,"lat":53.605886,"homepage_url":null,"federal_state_code":"HH","fax_number":null,"email_address":null,"city":"Hamburg"},{"zip_code":"22453","street":"Brödermannsweg 17","school_type_entity":"Gymnasium","school_type":"Gymnasium","phone_number":"67381670","old_slug":null,"official_id":"7921","name":"Moderne Schule Hamburg (Gymnasium)","lon":9.978596,"lat":53.605886,"homepage_url":null,"federal_state_code":"HH","fax_number":null,"email_address":null,"city":"Hamburg"},{"zip_code":"22303","street":"Saarlandstraße 30","school_type_entity":"Gymnasium","school_type":"Gymnasium","phone_number":"+49 40 53283260","old_slug":null,"official_id":"7924","name":"OKO Private School Talent-Schule Hamburg","lon":10.033718,"lat":53.587594,"homepage_url":null,"federal_state_code":"HH","fax_number":null,"email_address":null,"city":"Hamburg"},{"zip_code":"22529","street":"Hartsprung 23","school_type_entity":"Gymnasium","school_type":"Gymnasium","phone_number":"+49 40 79 01 47-0","old_slug":null,"official_id":"8003","name":"Lycée Français de Hambourg 'Antoine de St. Exupéry' (Gymnasium)","lon":9.958474,"lat":53.604141,"homepage_url":null,"federal_state_code":"HH","fax_number":"+49 40 79 01 47-56","email_address":null,"city":"Hamburg"},{"zip_code":"20146","street":"Grindelhof 30","school_type_entity":"Grundschule","school_type":"Grundschule","phone_number":"+49 40 44 09 44 11","old_slug":null,"official_id":"8004","name":"Joseph-Carlebach-Schule (Grundschule)","lon":9.983728,"lat":53.568649,"homepage_url":null,"federal_state_code":"HH","fax_number":"+49 40 44 09 44 12","email_address":null,"city":"Hamburg"},{"zip_code":"20146","street":"Grindelhof 30","school_type_entity":"Stadtteilschule","school_type":"Stadtteilschule","phone_number":"+49 40 44 09 44 11","old_slug":null,"official_id":"8007","name":"Joseph-Carlebach-Schule (Stadtteilschule)","lon":9.983728,"lat":53.568649,"homepage_url":null,"federal_state_code":"HH","fax_number":"+49 40 44 09 44 12","email_address":null,"city":"Hamburg"},{"zip_code":"22159","street":"August-Krogmann-Straße 115","school_type_entity":"Grundschule","school_type":"Grundschule","phone_number":"+49 40 64 55 22 82","old_slug":null,"official_id":"8008","name":"August-Hermann-Francke-Schule Farmsen","lon":10.114133,"lat":53.61493,"homepage_url":null,"federal_state_code":"HH","fax_number":"+49 40 64 55 22-87","email_address":null,"city":"Hamburg"},{"zip_code":"22083","street":"Bachstraße 13","school_type_entity":"Stadtteilschule","school_type":"Stadtteilschule","phone_number":"+49 40 28 00 27-81","old_slug":null,"official_id":"8012","name":"August-Hermann-Francke-Schule Uhlenhorst","lon":10.028938,"lat":53.573279,"homepage_url":null,"federal_state_code":"HH","fax_number":null,"email_address":null,"city":"Hamburg"},{"zip_code":"22529","street":"Hartsprung 23","school_type_entity":"Grundschule","school_type":"Grundschule","phone_number":"+49 40 79 01 47-0","old_slug":null,"official_id":"8013","name":"Lycée Français de Hambourg 'Antoine de St. Exupéry' (Grundschule)","lon":9.958474,"lat":53.604141,"homepage_url":null,"federal_state_code":"HH","fax_number":null,"email_address":null,"city":"Hamburg"},{"zip_code":"22761","street":"Händelstraße 11","school_type_entity":"Grundschule","school_type":"Grundschule","phone_number":"+49 40 88 16 81-85","old_slug":null,"official_id":"8014","name":"August-Hermann-Francke-Schule Bahrenfeld","lon":9.907671,"lat":53.561996,"homepage_url":null,"federal_state_code":"HH","fax_number":null,"email_address":null,"city":"Hamburg"},{"zip_code":"22159","street":"Berner Allee 20","school_type_entity":"Grundschule","school_type":"Grundschule","phone_number":"+49 40 64 42 82-42","old_slug":null,"official_id":"8015","name":"August-Hermann-Francke-Schule Berne","lon":10.133725,"lat":53.628827,"homepage_url":null,"federal_state_code":"HH","fax_number":null,"email_address":null,"city":"Hamburg"},{"zip_code":"21035","street":"Glasbläserhöfe 2","school_type_entity":"Grundschule","school_type":"Grundschule","phone_number":"+49 40 64664802","old_slug":null,"official_id":"8016","name":"August-Hermann-Francke-Schule Bergedorf","lon":10.202108,"lat":53.4829374,"homepage_url":null,"federal_state_code":"HH","fax_number":null,"email_address":null,"city":"Hamburg"},{"zip_code":"22159","street":"Rahlstedter Weg 60","school_type_entity":"Stadtteilschule","school_type":"Stadtteilschule","phone_number":"+49 40 64 58 95-0","old_slug":null,"official_id":"8101","name":"Rudolf-Steiner-Schule Wandsbek","lon":10.127174,"lat":53.602838,"homepage_url":null,"federal_state_code":"HH","fax_number":"+49 40 64 58 95-20","email_address":null,"city":"Hamburg"},{"zip_code":"22609","street":"Elbchaussee 366","school_type_entity":"Stadtteilschule","school_type":"Stadtteilschule","phone_number":"+49 40 8 22 40-00","old_slug":null,"official_id":"8102","name":"Rudolf-Steiner-Schule Nienstedten","lon":9.855735,"lat":53.549041,"homepage_url":null,"federal_state_code":"HH","fax_number":"+49 40 8 22 40-024","email_address":null,"city":"Hamburg"},{"zip_code":"22041","street":"Bärenallee 15","school_type_entity":"Sonderschule","school_type":"Sonderschule","phone_number":"+49 40 68 44 55","old_slug":null,"official_id":"8106","name":"Friedrich-Robbe-Institut","lon":10.063457,"lat":53.569672,"homepage_url":null,"federal_state_code":"HH","fax_number":"+49 40 6 52 87 62","email_address":null,"city":"Hamburg"},{"zip_code":"22395","street":"Bergstedter Chaussee 207","school_type_entity":"Stadtteilschule","school_type":"Stadtteilschule","phone_number":"645 08 20","old_slug":null,"official_id":"8112","name":"Rudolf-Steiner-Schule Bergstedt","lon":10.135846,"lat":53.676324,"homepage_url":null,"federal_state_code":"HH","fax_number":null,"email_address":null,"city":"Hamburg"},{"zip_code":"22763","street":"Bleickenallee 1","school_type_entity":"Stadtteilschule","school_type":"Stadtteilschule","phone_number":"+49 40 4 10 09-93","old_slug":null,"official_id":"8113","name":"Rudolf-Steiner-Schule Altona","lon":9.922053,"lat":53.55055,"homepage_url":null,"federal_state_code":"HH","fax_number":"+49 40 4 10 09-950","email_address":null,"city":"Hamburg"},{"zip_code":"21149","street":"Ehestorfer Heuweg 82","school_type_entity":"Stadtteilschule","school_type":"Stadtteilschule","phone_number":"+49 40 797 18 10","old_slug":null,"official_id":"8114","name":"Rudolf-Steiner-Schule Harburg","lon":9.891795,"lat":53.461212,"homepage_url":null,"federal_state_code":"HH","fax_number":"+49 40 797 18 20","email_address":null,"city":"Hamburg"},{"zip_code":"21029","street":"Am Brink 7","school_type_entity":"Stadtteilschule","school_type":"Stadtteilschule","phone_number":"7 21 22 22","old_slug":null,"official_id":"8115","name":"Rudolf-Steiner-Schule Bergedorf","lon":10.216802,"lat":53.485116,"homepage_url":null,"federal_state_code":"HH","fax_number":"+49 40 721 22-41","email_address":null,"city":"Hamburg"},{"zip_code":"21075","street":"Woellmerstraße 1","school_type_entity":"Sonderschule","school_type":"Sonderschule","phone_number":"+49 40 70973778-0","old_slug":null,"official_id":"8117","name":"Michael Schule","lon":9.959604,"lat":53.46531,"homepage_url":null,"federal_state_code":"HH","fax_number":"+49 40 70973778-19","email_address":null,"city":"Hamburg"},{"zip_code":"22159","street":"Lienaustraße 14","school_type_entity":"Stadtteilschule","school_type":"Stadtteilschule","phone_number":"+49 40 6","old_slug":null,"official_id":"8118","name":"Haus des Lernens","lon":10.124184,"lat":53.627908,"homepage_url":null,"federal_state_code":"HH","fax_number":"+49 40 6","email_address":null,"city":"Hamburg"},{"zip_code":"22111","street":"Horner Weg 164","school_type_entity":"Stadtteilschule","school_type":"Stadtteilschule","phone_number":"+49 40 6 55 91-191","old_slug":null,"official_id":"8201","name":"Wichern-Schule (Stadtteilschule)","lon":10.069796,"lat":53.555078,"homepage_url":null,"federal_state_code":"HH","fax_number":"+49 40 6 55 91-256","email_address":null,"city":"Hamburg"},{"zip_code":"22111","street":"Horner Weg 164","school_type_entity":"Gymnasium","school_type":"Gymnasium","phone_number":"+49 40 6 55 91-190","old_slug":null,"official_id":"8202","name":"Wichern-Schule (Gymnasium)","lon":10.069796,"lat":53.555078,"homepage_url":null,"federal_state_code":"HH","fax_number":"+49 40 6 55 91-256","email_address":null,"city":"Hamburg"},{"zip_code":"22111","street":"Horner Weg 164","school_type_entity":"Grundschule","school_type":"Grundschule","phone_number":"+49 40 655 91-191","old_slug":null,"official_id":"8204","name":"Wichern-Schule (Grundschule)","lon":10.069796,"lat":53.555078,"homepage_url":null,"federal_state_code":"HH","fax_number":"+49 40 655 91-256","email_address":null,"city":"Hamburg"},{"zip_code":"22609","street":"Jenischstraße 48","school_type_entity":"Gymnasium","school_type":"Gymnasium","phone_number":"+49 40 8 26 00-2","old_slug":null,"official_id":"8301","name":"Jenisch-Gymnasium","lon":9.854583,"lat":53.562519,"homepage_url":null,"federal_state_code":"HH","fax_number":"+49 40 8 23 33-7","email_address":null,"city":"Hamburg"},{"zip_code":"20097","street":"Wendenstraße 35","school_type_entity":"Gymnasium","school_type":"Gymnasium","phone_number":"+49 40 32537050","old_slug":null,"official_id":"8302","name":"Bilinguales Gymnasium Phorms Hamburg","lon":10.02699,"lat":53.547458,"homepage_url":null,"federal_state_code":"HH","fax_number":"+49 40 325 370-55","email_address":null,"city":"Hamburg"},{"zip_code":"22769","street":"Heinrichstraße 14","school_type_entity":"Stadtteilschule","school_type":"Stadtteilschule","phone_number":null,"old_slug":null,"official_id":"8501","name":"Christian- Morgenstern- Schule (Stadtteilschule)","lon":9.957599,"lat":53.566061,"homepage_url":null,"federal_state_code":"HH","fax_number":null,"email_address":null,"city":"Hamburg"},{"zip_code":"22337","street":"Alsterdorfer Straße 523","school_type_entity":"Stadtteilschule","school_type":"Stadtteilschule","phone_number":"+49 40 +40","old_slug":null,"official_id":"8502","name":"Zukunftsschule Alsterpalais (Stadtteilschule)","lon":10.027869,"lat":53.618202,"homepage_url":null,"federal_state_code":"HH","fax_number":"+49 40 529 85-184","email_address":null,"city":"Hamburg"}]