[{"zip_code":"66121","street":"Rostocker Straße 97","school_type_entity":"Grundschule","school_type":"Grundschule","phone_number":"+49 681 812121","old_slug":null,"official_id":"101031","name":"Grundschule Eschberg","lon":7.042201,"lat":49.236615,"homepage_url":null,"federal_state_code":"SL","fax_number":"+49 681 812501","email_address":null,"city":"Saarbrücken"},{"zip_code":"66111","street":"Schumannstraße 42","school_type_entity":"Grundschule","school_type":"Grundschule","phone_number":"+49 681 36684","old_slug":null,"official_id":"101051","name":"Max-Ophüls-Grundschule Saarbrücken","lon":7.002197,"lat":49.237816,"homepage_url":null,"federal_state_code":"SL","fax_number":"+49 681 36628","email_address":null,"city":"Saarbrücken"},{"zip_code":"66115","street":"St. Josef-Straße 11","school_type_entity":"Grundschule","school_type":"Grundschule","phone_number":"+49 681 42090","old_slug":null,"official_id":"101071","name":"Ganztagsgrundschule Saarbrücken-Kirchberg","lon":6.973557,"lat":49.240982,"homepage_url":null,"federal_state_code":"SL","fax_number":"+49 681 4171585","email_address":null,"city":"Saarbrücken"},{"zip_code":"66125","street":"Am Geisenberg 41","school_type_entity":"Grundschule","school_type":"Grundschule","phone_number":"+49 6897 972380","old_slug":null,"official_id":"101081","name":"Grundschule Dudweiler","lon":7.047704,"lat":49.268632,"homepage_url":null,"federal_state_code":"SL","fax_number":"+49 6897 972382","email_address":null,"city":"Saarbrücken"},{"zip_code":"66113","street":"Im Knappenroth 2","school_type_entity":"Grundschule","school_type":"Grundschule","phone_number":"+49 681 71704","old_slug":null,"official_id":"101111","name":"Grundschule Rastpfuhl","lon":6.964733,"lat":49.250831,"homepage_url":null,"federal_state_code":"SL","fax_number":"+49 681 7300540","email_address":null,"city":"Saarbrücken"},{"zip_code":"66113","street":"Am Hof 28","school_type_entity":"Grundschule","school_type":"Grundschule","phone_number":"+49 681 41166","old_slug":null,"official_id":"101131","name":"Grundschule Russhütte","lon":6.974559,"lat":49.25813,"homepage_url":null,"federal_state_code":"SL","fax_number":"+49 681 41620021","email_address":null,"city":"Saarbrücken"},{"zip_code":"66115","street":"Kirchberg 3","school_type_entity":"Grundschule","school_type":"Grundschule","phone_number":"+49 681 42001","old_slug":null,"official_id":"101151","name":"Grundschule Saarbrücken- Wallenbaum","lon":6.975818,"lat":49.24133,"homepage_url":null,"federal_state_code":"SL","fax_number":"+49 681 4170211","email_address":null,"city":"Saarbrücken"},{"zip_code":"66125","street":"Saarbrücker Straße 289","school_type_entity":"Grundschule","school_type":"Grundschule","phone_number":"+49 681 905","old_slug":null,"official_id":"101211","name":"Grundschule Turmschule Dudweiler","lon":7.03692,"lat":49.278832,"homepage_url":null,"federal_state_code":"SL","fax_number":"+49 681 905","email_address":null,"city":"Saarbrücken"},{"zip_code":"66125","street":"Marktstraße 43","school_type_entity":"Grundschule","school_type":"Grundschule","phone_number":"+49 6897 762486","old_slug":null,"official_id":"101221","name":"Grundschule Herrensohr","lon":7.010377,"lat":49.274718,"homepage_url":null,"federal_state_code":"SL","fax_number":"+49 6897 972961","email_address":null,"city":"Saarbrücken"},{"zip_code":"66133","street":"Schulstraße 10","school_type_entity":"Grundschule","school_type":"Grundschule","phone_number":"+49 681 814652","old_slug":null,"official_id":"101261","name":"Freiwillige Ganztagsgrundschule Plus Sbr.-Scheidt","lon":7.109199,"lat":49.204218,"homepage_url":null,"federal_state_code":"SL","fax_number":"+49 681 814674","email_address":null,"city":"Saarbrücken-Scheidt"},{"zip_code":"66113","street":"Im Knappenroth","school_type_entity":"Grundschule","school_type":"Grundschule","phone_number":"+49 681 74325","old_slug":"66113-ganztagsgrundschule-saarbruecken-rastpfuhl","official_id":"101301","name":"Ganztagsgrundschule Rastpfuhl","lon":6.968102,"lat":49.251556,"homepage_url":"http://gtgs-rastpfuhl.de","federal_state_code":"SL","fax_number":"+49 681 74339","email_address":"info@gtgs-rastpfuhl.de","city":"Saarbrücken"},{"zip_code":"66113","street":"Ziegelstrasse 35","school_type_entity":"Grundschule","school_type":"Grundschule","phone_number":"+49 681 42394","old_slug":null,"official_id":"101311","name":"Grundschule Rodenhof","lon":6.986287,"lat":49.24674,"homepage_url":null,"federal_state_code":"SL","fax_number":"+49 681 498776","email_address":null,"city":"Saarbrücken"},{"zip_code":"66121","street":"Hellwigstraße 20","school_type_entity":"Grundschule","school_type":"Grundschule","phone_number":"+49 681 66497","old_slug":null,"official_id":"101331","name":"Grundschule Saarbrücken-Ost","lon":7.01399,"lat":49.232564,"homepage_url":null,"federal_state_code":"SL","fax_number":"+49 681 66497","email_address":null,"city":"Saarbrücken"},{"zip_code":"66117","street":"Dellengartenstraße 2","school_type_entity":"Grundschule","school_type":"Grundschule","phone_number":"+49 681 5849462","old_slug":null,"official_id":"201021","name":"Grundschule Dellengarten","lon":6.98069,"lat":49.230821,"homepage_url":null,"federal_state_code":"SL","fax_number":"+49 681 5849460","email_address":null,"city":"Saarbrücken"},{"zip_code":"66115","street":"Im Füllengarten 89","school_type_entity":"Grundschule","school_type":"Grundschule","phone_number":"+49 681 9767124","old_slug":null,"official_id":"201041","name":"Grundschule Füllengarten","lon":6.928738,"lat":49.24617,"homepage_url":null,"federal_state_code":"SL","fax_number":"+49 681 9767125","email_address":null,"city":"Saarbrücken"},{"zip_code":"66117","street":"Am Heidenhübel 1","school_type_entity":"Grundschule","school_type":"Grundschule","phone_number":"+49 681 57870","old_slug":null,"official_id":"201081","name":"Grundschule Folsterhöhe","lon":6.962295,"lat":49.216017,"homepage_url":null,"federal_state_code":"SL","fax_number":"+49 681 5849412","email_address":null,"city":"Saarbrücken"},{"zip_code":"66117","street":"Moltkestraße 31","school_type_entity":"Grundschule","school_type":"Grundschule","phone_number":"+49 681 581882","old_slug":null,"official_id":"201091","name":"Grundschule Am Ordensgut","lon":6.970312,"lat":49.23093,"homepage_url":null,"federal_state_code":"SL","fax_number":"+49 681 581877","email_address":null,"city":"Saarbrücken"},{"zip_code":"66119","street":"Arnulfstraße 15","school_type_entity":"Grundschule","school_type":"Grundschule","phone_number":"+49 681 9850184","old_slug":null,"official_id":"201141","name":"Grundschule St. Arnual","lon":7.016507,"lat":49.218774,"homepage_url":null,"federal_state_code":"SL","fax_number":"+49 681 9850189","email_address":null,"city":"Saarbrücken"},{"zip_code":"66115","street":"Große Weyersbergstraße 7","school_type_entity":"Grundschule","school_type":"Grundschule","phone_number":"+49 681 79939","old_slug":null,"official_id":"201161","name":"Offene Ganztagsgrundschule Weyersberg","lon":6.948208,"lat":49.242783,"homepage_url":null,"federal_state_code":"SL","fax_number":"+49 681 76542","email_address":null,"city":"Saarbrücken"},{"zip_code":"66126","street":"Kirchstraße 1-3","school_type_entity":"Grundschule","school_type":"Grundschule","phone_number":"+49 6898 984046","old_slug":null,"official_id":"201171","name":"Grundschule Altenkessel","lon":7.037837,"lat":49.212387,"homepage_url":null,"federal_state_code":"SL","fax_number":"+49 6898 984047","email_address":null,"city":"Saarbrücken"},{"zip_code":"66129","street":"Bergstraße 63","school_type_entity":"Grundschule","school_type":"Grundschule","phone_number":"+49 6805 8416","old_slug":null,"official_id":"201201","name":"Grundschule Bübingen","lon":7.045509,"lat":49.18226,"homepage_url":null,"federal_state_code":"SL","fax_number":"+49 6805 8407","email_address":null,"city":"Saarbrücken-Bübingen"},{"zip_code":"66128","street":"Aschbachstraße 38","school_type_entity":"Grundschule","school_type":"Grundschule","phone_number":"+49 681 9970110","old_slug":null,"official_id":"201241","name":"Grundschule Gersweiler","lon":6.911504,"lat":49.237815,"homepage_url":null,"federal_state_code":"SL","fax_number":"+49 681 7020492","email_address":null,"city":"Saarbrücken-Gersweiler"},{"zip_code":"66132","street":"Friedrich-Ebert-Straße 23","school_type_entity":"Grundschule","school_type":"Grundschule","phone_number":"+49 681 9893045","old_slug":null,"official_id":"201271","name":"Grundschule Saarbrücken-Am Geisberg","lon":7.024145,"lat":49.19325,"homepage_url":null,"federal_state_code":"SL","fax_number":"+49 681 9893044","email_address":null,"city":"Saarbrücken-Bischmisheim"},{"zip_code":"66131","street":"Am Marktweg","school_type_entity":"Grundschule","school_type":"Grundschule","phone_number":"+49 6893 2536","old_slug":null,"official_id":"201281","name":"Grundschule Ensheim","lon":7.1130534999999995,"lat":49.22408885,"homepage_url":null,"federal_state_code":"SL","fax_number":"+49 6893 2548","email_address":null,"city":"Saarbrücken-Ensheim"},{"zip_code":"66130","street":"Peter-und-Paul-Straße 38","school_type_entity":"Grundschule","school_type":"Grundschule","phone_number":"+49 681 872121","old_slug":null,"official_id":"201291","name":"Grund- und Ganztagsgrundschule","lon":7.048128,"lat":49.211988,"homepage_url":null,"federal_state_code":"SL","fax_number":"+49 681 872181","email_address":null,"city":"Saarbrücken-Brebach-Fechingen"},{"zip_code":"66119","street":"Hohe Wacht 25","school_type_entity":"Grundschule","school_type":"Grundschule","phone_number":"+49 681 55826","old_slug":null,"official_id":"201301","name":"Grundschule Hohe Wacht","lon":6.985713,"lat":49.220475,"homepage_url":null,"federal_state_code":"SL","fax_number":"+49 681 5893786","email_address":null,"city":"Saarbrücken"},{"zip_code":"66130","street":"Schulstraße 30","school_type_entity":"Grundschule","school_type":"Grundschule","phone_number":"+49 6893 802759","old_slug":null,"official_id":"201322","name":"Private Grundschule Don Bosco","lon":7.067612,"lat":49.201295,"homepage_url":null,"federal_state_code":"SL","fax_number":null,"email_address":null,"city":"Saarbrücken-Brebach-Fechingen"},{"zip_code":"66127","street":"Hauptstraße 53","school_type_entity":"Grundschule","school_type":"Grundschule","phone_number":"+49 6898 32772","old_slug":"66127-erweiterte-realschule-saarbruecken-klarenthal","official_id":"201351","name":"Grundschule Klarenthal","lon":6.931615,"lat":49.23677,"homepage_url":"http://www.ers-klarenthal.de","federal_state_code":"SL","fax_number":"+49 6898 32774","email_address":"ers-klarenthal@saarnet.de","city":"Saarbrücken-Klarenthal"},{"zip_code":"66121","street":"Halbergstraße 112","school_type_entity":"Grundschule","school_type":"Grundschule","phone_number":"+49 681 62624","old_slug":"66121-deutsch-franzoesisches-gymnasium","official_id":"301362","name":"Ecole Francaise de Sarrebruck et Dilling","lon":7.016476,"lat":49.230323,"homepage_url":"http://dfg-lfa.org/start/","federal_state_code":"SL","fax_number":"+49 681 638000","email_address":"information@dfg-lfa.com","city":"Saarbrücken"},{"zip_code":"66299","street":"Bismarckstraße 4","school_type_entity":"Grundschule","school_type":"Grundschule","phone_number":"+49 6897 842411","old_slug":null,"official_id":"101011","name":"Grundschule Friedrichsthal","lon":7.095324,"lat":49.325419,"homepage_url":null,"federal_state_code":"SL","fax_number":"+49 6897 812278","email_address":null,"city":"Friedrichsthal"},{"zip_code":"66299","street":"Birkenweg 7","school_type_entity":"Grundschule","school_type":"Grundschule","phone_number":"+49 6897 842533","old_slug":null,"official_id":"101021","name":"Grundschule Bildstock","lon":7.09585,"lat":49.3357,"homepage_url":null,"federal_state_code":"SL","fax_number":"+49 6897 843687","email_address":null,"city":"Friedrichsthal-Bildstock"},{"zip_code":"66352","street":"Wilhelm-Heinrich-Weg 2","school_type_entity":"Grundschule","school_type":"Grundschule","phone_number":"+49 6898 40546","old_slug":null,"official_id":"201031","name":"Wilhelm-Heinrich-Grundschule der Gemeinde Grossrosseln","lon":6.836424,"lat":49.205557,"homepage_url":null,"federal_state_code":"SL","fax_number":"+49 6898 40567","email_address":null,"city":"Grossrosseln"},{"zip_code":"66265","street":"Dilsburger Straße 2","school_type_entity":"Grundschule","school_type":"Grundschule","phone_number":"+49 6806 608230","old_slug":null,"official_id":"301011","name":"Grundschule Heusweiler","lon":6.933143,"lat":49.33389,"homepage_url":null,"federal_state_code":"SL","fax_number":"+49 6806 608232","email_address":null,"city":"Heusweiler"},{"zip_code":"66265","street":"Glück-Auf-Weg","school_type_entity":"Grundschule","school_type":"Grundschule","phone_number":"+49 6806 8773","old_slug":"66265-erich-kaestner-grundschule","official_id":"301061","name":"Grundschule Holz - Erich Kästner Schule","lon":6.939072,"lat":49.330443,"homepage_url":"http://www.grundschule-holz.de","federal_state_code":"SL","fax_number":"+49 6806 989367","email_address":"info@grundschule-holz.de","city":"Heusweiler-Holz"},{"zip_code":"66271","street":"Auf dem Bies 23","school_type_entity":"Grundschule","school_type":"Grundschule","phone_number":"+49 6805 8565","old_slug":null,"official_id":"201011","name":"Grundschule Auersmacher Rilchingen-Hanweiler","lon":7.050773,"lat":49.145721,"homepage_url":null,"federal_state_code":"SL","fax_number":"+49 6805 912003","email_address":null,"city":"Kleinblittersdorf-Auersmacher"},{"zip_code":"66271","street":"Wintringer Straße 78","school_type_entity":"Grundschule","school_type":"Grundschule","phone_number":"+49 6805 2008","old_slug":null,"official_id":"201051","name":"Grundschule Kleinblittersdorf","lon":7.041739,"lat":49.163134,"homepage_url":null,"federal_state_code":"SL","fax_number":"+49 6805 2008638","email_address":null,"city":"Kleinblittersdorf"},{"zip_code":"66346","street":"Goethestraße","school_type_entity":"Grundschule","school_type":"Grundschule","phone_number":"+49 6898 61885","old_slug":null,"official_id":"301011","name":"Grundschule Püttlingen I","lon":6.8788063,"lat":49.2909375,"homepage_url":null,"federal_state_code":"SL","fax_number":"+49 6898 689980","email_address":null,"city":"Püttlingen"},{"zip_code":"66346","street":"Zur Sporthalle","school_type_entity":"Grundschule","school_type":"Grundschule","phone_number":"+49 6806 48791","old_slug":null,"official_id":"301031","name":"Grundschule Köllerbach","lon":6.8984617,"lat":49.3064066,"homepage_url":null,"federal_state_code":"SL","fax_number":"+49 6806 922869","email_address":null,"city":"Püttlingen"},{"zip_code":"66346","street":"Theodolinde-Katzenmaier-Straße 5","school_type_entity":"Grundschule","school_type":"Grundschule","phone_number":"+49 6898 67271","old_slug":null,"official_id":"301041","name":"Grundschule Viktoria Püttlingen-Ritterstraße","lon":6.911504,"lat":49.278117,"homepage_url":null,"federal_state_code":"SL","fax_number":"+49 6898 689572","email_address":null,"city":"Püttlingen"},{"zip_code":"66287","street":"Lasbachstraße 21","school_type_entity":"Grundschule","school_type":"Grundschule","phone_number":"+49 6897 63006","old_slug":null,"official_id":"301011","name":"Grundschule Lasbach","lon":7.045508,"lat":49.320981,"homepage_url":null,"federal_state_code":"SL","fax_number":"+49 6897 601438","email_address":null,"city":"Quierschied"},{"zip_code":"66287","street":"Hauptstraße 189","school_type_entity":"Grundschule","school_type":"Grundschule","phone_number":"+49 6825 5680","old_slug":null,"official_id":"301021","name":"Grundschule Fischbach-Göttelborn","lon":7.027291,"lat":49.342881,"homepage_url":null,"federal_state_code":"SL","fax_number":"+49 6825 8007700","email_address":null,"city":"Quierschied-Göttelborn"},{"zip_code":"66292","street":"Lindenschule","school_type_entity":"Grundschule","school_type":"Grundschule","phone_number":"+49 6806 3683","old_slug":null,"official_id":"301011","name":"Grundschule Riegelsberg","lon":6.953389,"lat":49.294214,"homepage_url":null,"federal_state_code":"SL","fax_number":"+49 6806 860682","email_address":null,"city":"Riegelsberg"},{"zip_code":"66292","street":"Ellerstraße 7","school_type_entity":"Grundschule","school_type":"Grundschule","phone_number":"+49 6806 2719","old_slug":null,"official_id":"301021","name":"Grundschule Hilschbach-Walpershofen","lon":6.942065,"lat":49.315735,"homepage_url":null,"federal_state_code":"SL","fax_number":"+49 6806 102119","email_address":null,"city":"Riegelsberg"},{"zip_code":"66292","street":"Wolfskaulstraße 88","school_type_entity":"Grundschule","school_type":"Grundschule","phone_number":"+49 6806 3684","old_slug":null,"official_id":"301031","name":"Grundschule Pflugscheid","lon":6.93031,"lat":49.298799,"homepage_url":null,"federal_state_code":"SL","fax_number":"+49 6806 860591","email_address":null,"city":"Riegelsberg"},{"zip_code":"66280","street":"Mellinweg 13","school_type_entity":"Grundschule","school_type":"Grundschule","phone_number":"+49 6897 4936","old_slug":null,"official_id":"101011","name":"Grundschule Sulzbach I Mellin Schule","lon":7.061291,"lat":49.303206,"homepage_url":null,"federal_state_code":"SL","fax_number":"+49 6897 569481","email_address":null,"city":"Sulzbach"},{"zip_code":"66280","street":"Richard Eberle Str.1","school_type_entity":"Grundschule","school_type":"Grundschule","phone_number":"+49 6897 88107","old_slug":null,"official_id":"101021","name":"Grundschule II Sulzbach-Altenwald Waldschule","lon":7.0793035,"lat":49.3162917,"homepage_url":null,"federal_state_code":"SL","fax_number":"+49 6897 88114","email_address":null,"city":"Sulzbach-Altenwald"},{"zip_code":"66333","street":"Bergstraße 30","school_type_entity":"Grundschule","school_type":"Grundschule","phone_number":"+49 6898 23316","old_slug":null,"official_id":"301011","name":"Grundschule Bergstrasse/Hermann-Röchling-Höhe","lon":6.854869,"lat":49.254498,"homepage_url":null,"federal_state_code":"SL","fax_number":"+49 6898 23442","email_address":null,"city":"Völklingen"},{"zip_code":"66333","street":"Haydnstraße 44","school_type_entity":"Grundschule","school_type":"Grundschule","phone_number":"+49 6898 23831","old_slug":null,"official_id":"301021","name":"Grundschule Haydnstrasse","lon":6.863138,"lat":49.258685,"homepage_url":null,"federal_state_code":"SL","fax_number":"+49 6898 294402","email_address":null,"city":"Völklingen"},{"zip_code":"66333","street":"Am Hasseleich 19","school_type_entity":"Grundschule","school_type":"Grundschule","phone_number":"+49 6898 31320","old_slug":null,"official_id":"301031","name":"Grundschule Fürstenhausen","lon":6.867466,"lat":49.2392,"homepage_url":null,"federal_state_code":"SL","fax_number":"+49 6898 935366","email_address":null,"city":"Völklingen-Fürstenhausen"},{"zip_code":"66333","street":"Schulstraße 12","school_type_entity":"Grundschule","school_type":"Grundschule","phone_number":"+49 6898 40117","old_slug":null,"official_id":"301071","name":"Grundschule Ludweiler-Lauterbach","lon":6.807752,"lat":49.217974,"homepage_url":null,"federal_state_code":"SL","fax_number":"+49 6898 439016","email_address":null,"city":"Völklingen-Ludweiler"},{"zip_code":"66333","street":"Neckarstraße 12","school_type_entity":"Grundschule","school_type":"Grundschule","phone_number":"+49 6898 851055","old_slug":null,"official_id":"301091","name":"Grundschule Heidstock-Luisenthal","lon":6.883518,"lat":49.25764,"homepage_url":null,"federal_state_code":"SL","fax_number":"+49 6898 851167","email_address":null,"city":"Völklingen-Heidstock"},{"zip_code":"66333","street":"Kleine Bergstraße 3","school_type_entity":"Grundschule","school_type":"Grundschule","phone_number":"+49 Wehrden: 06898","old_slug":null,"official_id":"301101","name":"Grundschule Wehrden/Geislautern - Regenbogenschule","lon":6.827892,"lat":49.248344,"homepage_url":null,"federal_state_code":"SL","fax_number":"+49 6898 16370","email_address":null,"city":"Völklingen- Wehrden"},{"zip_code":"66701","street":"Zur Plätsch","school_type_entity":"Grundschule","school_type":"Grundschule","phone_number":"+49 6832 801612","old_slug":null,"official_id":"201041","name":"Grundschule Reimsbach","lon":6.764953,"lat":49.451128,"homepage_url":null,"federal_state_code":"SL","fax_number":"+49 6832 446","email_address":null,"city":"Beckingen"},{"zip_code":"66701","street":"Pfarrer-Gierend-Straße 5","school_type_entity":"Grundschule","school_type":"Grundschule","phone_number":"+49 6832 383","old_slug":null,"official_id":"201051","name":"Grundschule Düppenweiler","lon":6.763323,"lat":49.41513,"homepage_url":null,"federal_state_code":"SL","fax_number":"+49 6832 801395","email_address":null,"city":"Beckingen"},{"zip_code":"66701","street":"Schulstraße 5","school_type_entity":"Grundschule","school_type":"Grundschule","phone_number":"+49 6835 601789","old_slug":null,"official_id":"201061","name":"Grundschule Beckingen","lon":6.702509,"lat":49.387369,"homepage_url":null,"federal_state_code":"SL","fax_number":"+49 6835 601790","email_address":null,"city":"Beckingen"},{"zip_code":"66679","street":"Schulstraße 11","school_type_entity":"Grundschule","school_type":"Grundschule","phone_number":"+49 6872 2295","old_slug":null,"official_id":"201011","name":"Nicolaus-Voltz-Grundschule-Losheim","lon":6.747346,"lat":49.508761,"homepage_url":null,"federal_state_code":"SL","fax_number":"+49 6872 8624","email_address":null,"city":"Losheim am See"},{"zip_code":"66679","street":"Quellenstraße 14","school_type_entity":"Grundschule","school_type":"Grundschule","phone_number":"+49 6872 2675","old_slug":"66679-grundschule-bachem","official_id":"201021","name":"Grundschule Bachem-Britten","lon":6.709198,"lat":49.477988,"homepage_url":"http://home.t-online.de/home/GS-Bachem/index.htm","federal_state_code":"SL","fax_number":"+49 6872 887008","email_address":"gs-bachem@t-online.de","city":"Losheim am See-Bachem"},{"zip_code":"66679","street":"Am Herrenpfad 4","school_type_entity":"Grundschule","school_type":"Grundschule","phone_number":"+49 6872 2556","old_slug":null,"official_id":"201041","name":"Grundschule Wahlen","lon":6.778596,"lat":49.488128,"homepage_url":null,"federal_state_code":"SL","fax_number":"+49 6872 8474","email_address":null,"city":"Losheim am See-Wahlen"},{"zip_code":"66663","street":"Kreuzbergstraße 51","school_type_entity":"Grundschule","school_type":"Grundschule","phone_number":"+49 6861 6684","old_slug":null,"official_id":"101011","name":"Grundschule Kreuzberg","lon":6.64278,"lat":49.446023,"homepage_url":null,"federal_state_code":"SL","fax_number":"+49 6861 793601","email_address":null,"city":"Merzig"},{"zip_code":"66663","street":"Beethovenstrasse 2","school_type_entity":"Grundschule","school_type":"Grundschule","phone_number":"+49 6861 6378","old_slug":null,"official_id":"101021","name":"Grundschule St. Josef","lon":6.635713,"lat":49.452682,"homepage_url":null,"federal_state_code":"SL","fax_number":"+49 6861 790654","email_address":null,"city":"Merzig"},{"zip_code":"66663","street":"Bezirksstraße 100","school_type_entity":"Grundschule","school_type":"Grundschule","phone_number":"+49 6861 2944","old_slug":null,"official_id":"101051","name":"Grundschule Besseringen","lon":6.61667,"lat":49.45,"homepage_url":null,"federal_state_code":"SL","fax_number":"+49 6861 790682","email_address":null,"city":"Merzig-Besseringen"},{"zip_code":"66663","street":"Zum Schotzberg 3","school_type_entity":"Grundschule","school_type":"Grundschule","phone_number":"+49 6861 3750","old_slug":null,"official_id":"101061","name":"Grundschule Saargau","lon":6.588315,"lat":49.464967,"homepage_url":null,"federal_state_code":"SL","fax_number":"+49 6861 2560","email_address":null,"city":"Merzig-Schwemlingen"},{"zip_code":"66663","street":"Ringstrasse 1","school_type_entity":"Grundschule","school_type":"Grundschule","phone_number":"+49 6861 3789","old_slug":null,"official_id":"101071","name":"Grundschule Brotdorf","lon":6.677886,"lat":49.47302,"homepage_url":null,"federal_state_code":"SL","fax_number":"+49 6861 790151","email_address":null,"city":"Merzig"},{"zip_code":"66663","street":"Schulstraße 26","school_type_entity":"Grundschule","school_type":"Grundschule","phone_number":"+49 6861 3222","old_slug":null,"official_id":"101081","name":"Grundschule Hilbringen","lon":6.613307,"lat":49.437192,"homepage_url":null,"federal_state_code":"SL","fax_number":"+49 6861 79322","email_address":null,"city":"Merzig-Hilbringen"},{"zip_code":"66663","street":"Martinusstraße","school_type_entity":"Grundschule","school_type":"Grundschule","phone_number":"+49 6861 8390578","old_slug":null,"official_id":"101092","name":"Private Grundschule \"Forscherschule\"","lon":6.668579,"lat":49.410409,"homepage_url":null,"federal_state_code":"SL","fax_number":null,"email_address":null,"city":"Merzig-Bietzen"},{"zip_code":"66693","street":"Von-Boch-Liebieg-Straße 34","school_type_entity":"Grundschule","school_type":"Grundschule","phone_number":"+49 6864 1390","old_slug":null,"official_id":"101011","name":"Grundschule Langwies der Gemeinde Mettlach","lon":6.58333,"lat":49.5,"homepage_url":null,"federal_state_code":"SL","fax_number":"+49 6864 1390","email_address":null,"city":"Mettlach"},{"zip_code":"66693","street":"Saarburger Straße","school_type_entity":"Grundschule","school_type":"Grundschule","phone_number":"+49 6865 322","old_slug":null,"official_id":"101021","name":"Grundschule Orscholz","lon":6.5852876,"lat":49.4940158,"homepage_url":null,"federal_state_code":"SL","fax_number":"+49 6865 180213","email_address":null,"city":"Mettlach-Orscholz"},{"zip_code":"66706","street":"Kirschenstraße 6-8","school_type_entity":"Grundschule","school_type":"Grundschule","phone_number":"+49 6867 560022","old_slug":null,"official_id":"101011","name":"Grundschule Dreiländereck  Schule der Gemeinde Perl","lon":6.394147,"lat":49.47741,"homepage_url":null,"federal_state_code":"SL","fax_number":"+49 6867 560023","email_address":null,"city":"Perl"},{"zip_code":"66687","street":"Michaelstraße 4","school_type_entity":"Grundschule","school_type":"Grundschule","phone_number":"+49 6871 2596","old_slug":null,"official_id":"201031","name":"Grundschule Lockweiler","lon":6.926533,"lat":49.528012,"homepage_url":null,"federal_state_code":"SL","fax_number":"+49 6871 922723","email_address":null,"city":"Wadern-Lockweiler"},{"zip_code":"66687","street":"Saarbruecker Straße 65","school_type_entity":"Grundschule","school_type":"Grundschule","phone_number":"+49 6874 263","old_slug":null,"official_id":"201041","name":"Grundschule Nunkirchen","lon":6.86667,"lat":49.51667,"homepage_url":null,"federal_state_code":"SL","fax_number":"+49 6874 182816","email_address":null,"city":"Wadern-Nunkirchen"},{"zip_code":"66687","street":"Schlimmfeldstraße 1","school_type_entity":"Grundschule","school_type":"Grundschule","phone_number":"+49 6871 2376","old_slug":null,"official_id":"201051","name":"Grundschule St. Martin Wadrill-Steinberg","lon":6.891312,"lat":49.585478,"homepage_url":null,"federal_state_code":"SL","fax_number":"+49 6871 922761","email_address":null,"city":"Wadern-Wadrill"},{"zip_code":"66709","street":"Schulstraße10","school_type_entity":"Grundschule","school_type":"Grundschule","phone_number":"+49 6876 373","old_slug":null,"official_id":"201011","name":"Grundschule Weiskirchen","lon":6.82,"lat":49.55611,"homepage_url":null,"federal_state_code":"SL","fax_number":"+49 6876 791802","email_address":null,"city":"Weiskirchen"},{"zip_code":"66571","street":"St.Sebastianstraße 1","school_type_entity":"Grundschule","school_type":"Grundschule","phone_number":"+49 6881 6642","old_slug":null,"official_id":"201011","name":"Grundschule Eppelborn","lon":6.96667,"lat":49.38333,"homepage_url":null,"federal_state_code":"SL","fax_number":"+49 6881 88693","email_address":null,"city":"Eppelborn"},{"zip_code":"66571","street":"Jägerbergstraße 2","school_type_entity":"Grundschule","school_type":"Grundschule","phone_number":"+49 6806 81305","old_slug":null,"official_id":"201051","name":"Grundschule Wiesbach-Dirmingen","lon":6.981516,"lat":49.369338,"homepage_url":null,"federal_state_code":"SL","fax_number":"+49 6806 81361","email_address":null,"city":"Eppelborn-Wiesbach"},{"zip_code":"66571","street":"In der Humes 40","school_type_entity":"Grundschule","school_type":"Grundschule","phone_number":"+49 6881 8994716","old_slug":null,"official_id":"201062","name":"Private Montessori-Grundschule","lon":6.99796,"lat":49.38865,"homepage_url":null,"federal_state_code":"SL","fax_number":"+49 6881 8994738","email_address":null,"city":"Eppelborn-Humes"},{"zip_code":"66557","street":"Dr.Maxein-Straße 2","school_type_entity":"Grundschule","school_type":"Grundschule","phone_number":"+49 6825 2840","old_slug":null,"official_id":"201031","name":"Grundschule An der Ill, Hüttigweiler","lon":7.03333,"lat":49.36667,"homepage_url":null,"federal_state_code":"SL","fax_number":"+49 6825 499519","email_address":null,"city":"Illingen"},{"zip_code":"66557","street":"In der Drischeck","school_type_entity":"Grundschule","school_type":"Grundschule","phone_number":"+49 6825 3010","old_slug":null,"official_id":"201041","name":"Grundschule Uchtelfangen","lon":7.03333,"lat":49.36667,"homepage_url":null,"federal_state_code":"SL","fax_number":"+49 6825 499518","email_address":null,"city":"Illingen-Uchtelfangen"},{"zip_code":"66557","street":"Schulstrasse 4","school_type_entity":"Grundschule","school_type":"Grundschule","phone_number":"+49 6825 47354","old_slug":null,"official_id":"201051","name":"Grundschule Auf der Lehn, Illingen","lon":7.052597,"lat":49.374258,"homepage_url":null,"federal_state_code":"SL","fax_number":"+49 6825 47465","email_address":null,"city":"Illingen"},{"zip_code":"66589","street":"Allenfeldstraße","school_type_entity":"Grundschule","school_type":"Grundschule","phone_number":"+49 6825 7780","old_slug":null,"official_id":"201011","name":"Grundschule Merchweiler","lon":7.0618136,"lat":49.3564362,"homepage_url":null,"federal_state_code":"SL","fax_number":"+49 6825 970210","email_address":null,"city":"Merchweiler"},{"zip_code":"66589","street":"Zum Striedt 59","school_type_entity":"Grundschule","school_type":"Grundschule","phone_number":"+49 6825 2144","old_slug":null,"official_id":"201021","name":"Grundschule Merchweiler-Wemmetsweiler","lon":7.08505,"lat":49.370174,"homepage_url":null,"federal_state_code":"SL","fax_number":"+49 6825 499738","email_address":null,"city":"Merchweiler-Wemmetsweiler"},{"zip_code":"66538","street":"Kleiststraße 30","school_type_entity":"Grundschule","school_type":"Grundschule","phone_number":"+49 6821 23455","old_slug":null,"official_id":"101011","name":"Grundschule Bachschule Neunkirchen","lon":7.180937,"lat":49.35088,"homepage_url":null,"federal_state_code":"SL","fax_number":"+49 6821 9728485","email_address":null,"city":"Neunkirchen"},{"zip_code":"66539","street":"Berthold-Günther-Platz 5","school_type_entity":"Grundschule","school_type":"Grundschule","phone_number":"+49 6821 41252","old_slug":null,"official_id":"101051","name":"Grundschule Wellesweiler","lon":8,"lat":50.79972,"homepage_url":null,"federal_state_code":"SL","fax_number":"+49 6821 485341","email_address":null,"city":"Neunkirchen-Wellesweiler"},{"zip_code":"66540","street":"Kuchenbergstraße 47","school_type_entity":"Grundschule","school_type":"Grundschule","phone_number":"+49 6821 53691","old_slug":"66540-grundschule-wiebelskirchen","official_id":"101081","name":"Grundschule Wiebelskirchen","lon":7.186046,"lat":49.36917,"homepage_url":"http://www.grundschule-wiebelskirchen.de","federal_state_code":"SL","fax_number":"+49 6821 953475","email_address":"grundschule-wiebelskirchen@web.de","city":"Neunkirchen-Wiebelskirchen"},{"zip_code":"66540","street":"Freiherr-von-Stein-Straße 6","school_type_entity":"Grundschule","school_type":"Grundschule","phone_number":"+49 6821 23429","old_slug":null,"official_id":"101091","name":"Ganztagsgrundschule Am Stadtpark","lon":7.191438,"lat":49.338634,"homepage_url":null,"federal_state_code":"SL","fax_number":"+49 6821 179228","email_address":null,"city":"Neunkirchen"},{"zip_code":"66539","street":"Zur Ewigkeit 7","school_type_entity":"Grundschule","school_type":"Grundschule","phone_number":"+49 6821 31821","old_slug":null,"official_id":"101101","name":"Grundschule Furpach","lon":7.21608,"lat":49.322659,"homepage_url":null,"federal_state_code":"SL","fax_number":"+49 6821 308883","email_address":null,"city":"Neunkirchen-Furpach"},{"zip_code":"66538","street":"Nachtigallenweg 45 a","school_type_entity":"Grundschule","school_type":"Grundschule","phone_number":"+49 6821 4018744","old_slug":null,"official_id":"101111","name":"Grundschule Steinwald","lon":7.1999,"lat":49.345717,"homepage_url":null,"federal_state_code":"SL","fax_number":"+49 6821 9046648","email_address":null,"city":"Neunkirchen-Steinwald"},{"zip_code":"66540","street":"Prälat-Schütz-Straße 15","school_type_entity":"Grundschule","school_type":"Grundschule","phone_number":"+49 6821 95040","old_slug":null,"official_id":"102032","name":"Grundschule (privat)","lon":7.189038,"lat":49.366518,"homepage_url":null,"federal_state_code":"SL","fax_number":"+49 6821 950444","email_address":null,"city":"Neunkirchen-Wiebelskirchen"},{"zip_code":"66564","street":"Freiherr v. Stein-Straße 16","school_type_entity":"Grundschule","school_type":"Grundschule","phone_number":"+49 6824 2172","old_slug":null,"official_id":"201011","name":"Grundschule Lehbesch","lon":7.1917655,"lat":49.413005850000005,"homepage_url":null,"federal_state_code":"SL","fax_number":"+49 6824 709573","email_address":null,"city":"Ottweiler"},{"zip_code":"66564","street":"Betzelbacher Weg 17","school_type_entity":"Grundschule","school_type":"Grundschule","phone_number":"+49 6824 4310","old_slug":null,"official_id":"201021","name":"Grundschule Neumünster","lon":7.17317,"lat":49.403883,"homepage_url":null,"federal_state_code":"SL","fax_number":"+49 6824 300904","email_address":null,"city":"Ottweiler-Neumünster"},{"zip_code":"66578","street":"Comeniusstraße 9","school_type_entity":"Grundschule","school_type":"Grundschule","phone_number":"+49 6821 6048","old_slug":null,"official_id":"201011","name":"Grundschule Schiffweiler","lon":7.127134,"lat":49.367479,"homepage_url":null,"federal_state_code":"SL","fax_number":"+49 6821 634412","email_address":null,"city":"Schiffweiler"},{"zip_code":"66578","street":"Im Wiesengrund","school_type_entity":"Grundschule","school_type":"Grundschule","phone_number":"+49 6821 63174","old_slug":null,"official_id":"201031","name":"Grundschule Landsweiler-Reden","lon":7.127437,"lat":49.361316,"homepage_url":null,"federal_state_code":"SL","fax_number":"+49 6821 635523","email_address":null,"city":"Schiffweiler-Landsweiler-Reden"},{"zip_code":"66578","street":"Karlstraße 19","school_type_entity":"Grundschule","school_type":"Grundschule","phone_number":"+49 6821 6017","old_slug":null,"official_id":"201041","name":"Grundschule Heiligenwald","lon":7.098692,"lat":49.354878,"homepage_url":null,"federal_state_code":"SL","fax_number":"+49 6821 635516","email_address":null,"city":"Schiffweiler-Heiligenwald"},{"zip_code":"66583","street":"Pestalozzistraße 3","school_type_entity":"Grundschule","school_type":"Grundschule","phone_number":"+49 6821 78168","old_slug":null,"official_id":"101011","name":"Grundschule Elversberg","lon":7.12619,"lat":49.313241,"homepage_url":null,"federal_state_code":"SL","fax_number":"+49 6821 742249","email_address":null,"city":"Spiesen-Elversberg (Elversberg)"},{"zip_code":"66583","street":"Pastor-Kollmann-Straße","school_type_entity":"Grundschule","school_type":"Grundschule","phone_number":"+49 6821 78163","old_slug":null,"official_id":"101021","name":"Grundschule Spiesen","lon":7.15118,"lat":49.316131,"homepage_url":null,"federal_state_code":"SL","fax_number":"+49 6821 742228","email_address":null,"city":"Spiesen-Elversberg (Spiesen)"},{"zip_code":"66763","street":"Römerstraße 7","school_type_entity":"Grundschule","school_type":"Grundschule","phone_number":"+49 6831 1","old_slug":"66763-grundschule-i-dillingen-roemerschule-pachten","official_id":"201011","name":"Grundschule Dillingen I -Römerschule-","lon":10.543148,"lat":48.597606,"homepage_url":"http://www.roemerschule.de","federal_state_code":"SL","fax_number":"+49 6831 1","email_address":"biokuppel@compuserve.de","city":"Dillingen-Pachten"},{"zip_code":"66763","street":"Kerlinger Straße 2","school_type_entity":"Grundschule","school_type":"Grundschule","phone_number":"+49 6831 7685670","old_slug":null,"official_id":"201021","name":"Grundschule Dillingen II - Philipp-Schmitt-Schule","lon":6.718444,"lat":49.345216,"homepage_url":null,"federal_state_code":"SL","fax_number":"+49 6831 7682059","email_address":null,"city":"Dillingen"},{"zip_code":"66763","street":"Friedrich-Ebert-Straße 69","school_type_entity":"Grundschule","school_type":"Grundschule","phone_number":"+49 6831 7614840","old_slug":null,"official_id":"201031","name":"Grundschule Dillingen III Odilienschule","lon":6.723448,"lat":49.358126,"homepage_url":null,"federal_state_code":"SL","fax_number":"+49 6831 7614842","email_address":null,"city":"Dillingen"},{"zip_code":"66763","street":"Richard-Wagner-Straße 16","school_type_entity":"Grundschule","school_type":"Grundschule","phone_number":"+49 6831 79886","old_slug":null,"official_id":"201041","name":"Primsschule Grundschule Dillingen IV","lon":6.764857,"lat":49.371226,"homepage_url":null,"federal_state_code":"SL","fax_number":"+49 6831 769508","email_address":null,"city":"Dillingen"},{"zip_code":"66822","street":"Mottener Straße 46","school_type_entity":"Grundschule","school_type":"Grundschule","phone_number":"+49 6881 537015","old_slug":null,"official_id":"101011","name":"Grundschule Lebach","lon":6.903446,"lat":49.414085,"homepage_url":null,"federal_state_code":"SL","fax_number":"+49 6881 5390147","email_address":null,"city":"Lebach"},{"zip_code":"66822","street":"Im Breitenfeld","school_type_entity":"Grundschule","school_type":"Grundschule","phone_number":"+49 6881 2116","old_slug":null,"official_id":"101061","name":"Grundschule Landsweiler","lon":6.923229,"lat":49.391933,"homepage_url":null,"federal_state_code":"SL","fax_number":"+49 6881 537758","email_address":null,"city":"Lebach-Landsweiler"},{"zip_code":"66822","street":"Pestalozzistraße 2-3","school_type_entity":"Grundschule","school_type":"Grundschule","phone_number":"+49 6888 282","old_slug":null,"official_id":"101071","name":"Grundschule Steinbach","lon":6.955548,"lat":49.462597,"homepage_url":null,"federal_state_code":"SL","fax_number":"+49 6888 901324","email_address":null,"city":"Lebach"},{"zip_code":"66822","street":"Dillinger Straße 67","school_type_entity":"Grundschule","school_type":"Grundschule","phone_number":"+49 6881 91323","old_slug":null,"official_id":"101092","name":"Grundschule Lebach (Nikolaus Groß)","lon":6.895171,"lat":49.404791,"homepage_url":null,"federal_state_code":"SL","fax_number":"+49 6881 91324","email_address":null,"city":"Lebach"},{"zip_code":"66809","street":"Piesbacher Str. 11a","school_type_entity":"Grundschule","school_type":"Grundschule","phone_number":"+49 6838 981200","old_slug":null,"official_id":"101031","name":"Grundschule Nalbach","lon":6.791233,"lat":49.38039,"homepage_url":null,"federal_state_code":"SL","fax_number":"+49 6838 9812019","email_address":null,"city":"Nalbach"},{"zip_code":"66780","street":"Niedaltdorfer Straße 32","school_type_entity":"Grundschule","school_type":"Grundschule","phone_number":"+49 6833 235","old_slug":"66780-grundschule-niedschule-hemmersdorf","official_id":"201031","name":"Grundschule Hemmersdorf","lon":6.613296,"lat":49.354785,"homepage_url":"http://www.Niedschule.de","federal_state_code":"SL","fax_number":"+49 6833 894652","email_address":"niedschule@t-online.de","city":"Rehlingen-Siersburg"},{"zip_code":"66780","street":"Zum Horst 12","school_type_entity":"Grundschule","school_type":"Grundschule","phone_number":"+49 6835 601348","old_slug":null,"official_id":"201041","name":"Grundschule Siersburg","lon":6.665181,"lat":49.357686,"homepage_url":null,"federal_state_code":"SL","fax_number":"+49 6835 601349","email_address":null,"city":"Rehlingen-Siersburg"},{"zip_code":"66780","street":"Beckinger Straße 25","school_type_entity":"Grundschule","school_type":"Grundschule","phone_number":"+49 6835 600130","old_slug":null,"official_id":"201051","name":"Grundschule Rehlingen","lon":6.684736,"lat":49.37949,"homepage_url":null,"federal_state_code":"SL","fax_number":"+49 6835 600132","email_address":null,"city":"Rehlingen-Siersburg"},{"zip_code":"66740","street":"Taubenstraße 1","school_type_entity":"Grundschule","school_type":"Grundschule","phone_number":"+49 6831 9458940","old_slug":null,"official_id":"101021","name":"Grund- und Ganztagsgrundschule","lon":6.74138,"lat":49.309002,"homepage_url":null,"federal_state_code":"SL","fax_number":"+49 6831 94589430","email_address":null,"city":"Saarlouis"},{"zip_code":"66740","street":"Bruchwiesenstraße 2","school_type_entity":"Grundschule","school_type":"Grundschule","phone_number":"+49 6831 996992","old_slug":null,"official_id":"101031","name":"Grundschule Beaumarais","lon":6.723667,"lat":49.314001,"homepage_url":null,"federal_state_code":"SL","fax_number":"+49 6831 9969926","email_address":null,"city":"Saarlouis-Beaumarais"},{"zip_code":"66740","street":"Klosterstraße 17","school_type_entity":"Grundschule","school_type":"Grundschule","phone_number":"+49 6831 9869870","old_slug":null,"official_id":"101041","name":"Grundschule Im Alten Kloster","lon":6.762839,"lat":49.323138,"homepage_url":null,"federal_state_code":"SL","fax_number":"+49 6831 98698719","email_address":null,"city":"Saarlouis-Fraulautern"},{"zip_code":"66740","street":"Prof.-Ecker-Straße 13","school_type_entity":"Grundschule","school_type":"Grundschule","phone_number":"+49 6831 9458890","old_slug":null,"official_id":"101061","name":"Grundschule Lisdorf","lon":6.762984,"lat":49.301106,"homepage_url":null,"federal_state_code":"SL","fax_number":"+49 6831 94588920","email_address":null,"city":"Saarlouis-Lisdorf"},{"zip_code":"66740","street":"Roemerstraße 20","school_type_entity":"Grundschule","school_type":"Grundschule","phone_number":"+49 6831 9869810","old_slug":null,"official_id":"101071","name":"Grundschule Römerberg","lon":6.75,"lat":49.31667,"homepage_url":null,"federal_state_code":"SL","fax_number":"+49 6831 98698117","email_address":null,"city":"Saarlouis-Roden"},{"zip_code":"66740","street":"Kurt-Schumacher-Allee 127","school_type_entity":"Grundschule","school_type":"Grundschule","phone_number":"+49 6831 9869890","old_slug":null,"official_id":"101081","name":"Grundschule Steinrausch","lon":6.765108,"lat":49.334253,"homepage_url":null,"federal_state_code":"SL","fax_number":"+49 6831 9869893","email_address":null,"city":"Saarlouis-Steinrausch"},{"zip_code":"66793","street":"Rodener Straße 11b","school_type_entity":"Grundschule","school_type":"Grundschule","phone_number":"+49 6838 983807","old_slug":null,"official_id":"101011","name":"Grundschule Gutberg Saarwellingen","lon":6.799716,"lat":49.35396,"homepage_url":null,"federal_state_code":"SL","fax_number":"+49 6838 983808","email_address":null,"city":"Saarwellingen"},{"zip_code":"66793","street":"Lohwiese 13","school_type_entity":"Grundschule","school_type":"Grundschule","phone_number":"+49 6838 830846","old_slug":null,"official_id":"101031","name":"Grundschule Reisbach","lon":6.828922,"lat":49.351209,"homepage_url":null,"federal_state_code":"SL","fax_number":"+49 6838 830847","email_address":null,"city":"Saarwellingen-Reisbach"},{"zip_code":"66839","street":"Saarbrücker Straße 37","school_type_entity":"Grundschule","school_type":"Grundschule","phone_number":"+49 6887 2502","old_slug":null,"official_id":"101011","name":"Grundschule Schmelz","lon":6.860859,"lat":49.440871,"homepage_url":null,"federal_state_code":"SL","fax_number":"+49 6887 889611","email_address":null,"city":"Schmelz"},{"zip_code":"66839","street":"Im Fluerchen 19a","school_type_entity":"Grundschule","school_type":"Grundschule","phone_number":"+49 6887 2391","old_slug":null,"official_id":"101031","name":"Grundschule Hüttersdorf","lon":6.843481,"lat":49.41888,"homepage_url":null,"federal_state_code":"SL","fax_number":"+49 6887 300094","email_address":null,"city":"Schmelz-Hüttersdorf"},{"zip_code":"66773","street":"Am Howatt 29","school_type_entity":"Grundschule","school_type":"Grundschule","phone_number":"+49 6834 52700","old_slug":null,"official_id":"201021","name":"Grundschule Schwalbach Kirchbergschule","lon":6.801911,"lat":49.299391,"homepage_url":null,"federal_state_code":"SL","fax_number":"+49 6834 401868","email_address":null,"city":"Schwalbach"},{"zip_code":"66773","street":"Bachtalschule","school_type_entity":"Grundschule","school_type":"Grundschule","phone_number":"+49 6834 51180","old_slug":null,"official_id":"201051","name":"Grundschule Elm","lon":6.83796,"lat":49.29145,"homepage_url":null,"federal_state_code":"SL","fax_number":"+49 6834 952791","email_address":null,"city":"Schwalbach-Elm"},{"zip_code":"66773","street":"Zur Turnhalle 7","school_type_entity":"Grundschule","school_type":"Grundschule","phone_number":"+49 6831 52237","old_slug":null,"official_id":"201061","name":"Grundschule Hülzweiler","lon":6.816508,"lat":49.321341,"homepage_url":null,"federal_state_code":"SL","fax_number":"+49 6831 5010116","email_address":null,"city":"Schwalbach-Hülzweiler"},{"zip_code":"66802","street":"Waldstraße 15","school_type_entity":"Grundschule","school_type":"Grundschule","phone_number":"+49 6836 2644","old_slug":null,"official_id":"201011","name":"Grundschule Überherrn","lon":6.696793,"lat":49.238945,"homepage_url":null,"federal_state_code":"SL","fax_number":"+49 6836 2724","email_address":null,"city":"Überherrn"},{"zip_code":"66802","street":"St. Oranna","school_type_entity":"Grundschule","school_type":"Grundschule","phone_number":"+49 6836 2426","old_slug":null,"official_id":"201041","name":"Grundschule Berus","lon":6.7,"lat":49.25,"homepage_url":null,"federal_state_code":"SL","fax_number":"+49 6836 684991","email_address":null,"city":"Überherrn"},{"zip_code":"66787","street":"Abteistraße 18a","school_type_entity":"Grundschule","school_type":"Grundschule","phone_number":"+49 6834 409428","old_slug":null,"official_id":"201011","name":"Grundschule Wadgassen","lon":6.798807,"lat":49.268759,"homepage_url":null,"federal_state_code":"SL","fax_number":"+49 6834 409433","email_address":null,"city":"Wadgassen"},{"zip_code":"66787","street":"Friedhofstraße 10","school_type_entity":"Grundschule","school_type":"Grundschule","phone_number":"+49 6834 61460","old_slug":null,"official_id":"201031","name":"Grundschule Differten/Werbeln","lon":6.776975,"lat":49.240115,"homepage_url":null,"federal_state_code":"SL","fax_number":"+49 6834 697204","email_address":null,"city":"Wadgassen"},{"zip_code":"66787","street":"Kaiserstraße 17 A","school_type_entity":"Grundschule","school_type":"Grundschule","phone_number":"+49 6834 490629","old_slug":null,"official_id":"201041","name":"Grundschule Hostenbach-Schaffhausen","lon":6.823257,"lat":49.263003,"homepage_url":null,"federal_state_code":"SL","fax_number":"+49 6834 49677","email_address":null,"city":"Wadgassen-Hostenbach"},{"zip_code":"66798","street":"Adolphshöhe 1","school_type_entity":"Grundschule","school_type":"Grundschule","phone_number":"+49 6831 965199","old_slug":null,"official_id":"201021","name":"Grundschule Wallerfangen","lon":6.735,"lat":49.31278,"homepage_url":null,"federal_state_code":"SL","fax_number":"+49 6831 643422","email_address":null,"city":"Wallerfangen"},{"zip_code":"66798","street":"Gaustraße 22","school_type_entity":"Grundschule","school_type":"Grundschule","phone_number":"+49 6837 91001","old_slug":"66798-grundschule-gisingen","official_id":"201031","name":"Grundschule Wallerfangen-Gisingen","lon":6.658061,"lat":49.33351,"homepage_url":"http://www.grundschule-gisingen.de","federal_state_code":"SL","fax_number":"+49 6837 7080051","email_address":"gsgisingen@t-online.de","city":"Wallerfangen-Gisingen"},{"zip_code":"66359","street":"Auf der Mühlenscheib","school_type_entity":"Grundschule","school_type":"Grundschule","phone_number":"+49 6834 922215","old_slug":null,"official_id":"201031","name":"Grundschule Bous","lon":6.804853,"lat":49.281644,"homepage_url":null,"federal_state_code":"SL","fax_number":"+49 6834 922217","email_address":null,"city":"Bous"},{"zip_code":"66806","street":"Parkstr.16","school_type_entity":"Grundschule","school_type":"Grundschule","phone_number":"+49 6831 506096","old_slug":null,"official_id":"201051","name":"Grundschule Ensdorf","lon":6.76667,"lat":49.3,"homepage_url":null,"federal_state_code":"SL","fax_number":"+49 6831 507441","email_address":null,"city":"Ensdorf"},{"zip_code":"66450","street":"Schillerstraße 8b","school_type_entity":"Grundschule","school_type":"Grundschule","phone_number":"+49 6826 5959","old_slug":null,"official_id":"101011","name":"Grundschule Bexbach","lon":7.254306,"lat":49.351472,"homepage_url":null,"federal_state_code":"SL","fax_number":"+49 6826 189680","email_address":null,"city":"Bexbach"},{"zip_code":"66450","street":"Pfarrer-Layes-Straße","school_type_entity":"Grundschule","school_type":"Grundschule","phone_number":"+49 6826 800843","old_slug":null,"official_id":"101021","name":"Schillerschule Grundschule am Höcherberg","lon":7.2571333,"lat":49.3788678,"homepage_url":null,"federal_state_code":"SL","fax_number":"+49 6826 800842","email_address":null,"city":"Bexbach-Frankenholz"},{"zip_code":"66450","street":"Am Kälberberg","school_type_entity":"Grundschule","school_type":"Grundschule","phone_number":"+49 6826 6013","old_slug":null,"official_id":"101051","name":"Grundschule Oberbexbach","lon":7.258511,"lat":49.349001,"homepage_url":null,"federal_state_code":"SL","fax_number":"+49 6826 800970","email_address":null,"city":"Bexbach-Oberbexbach"},{"zip_code":"66440","street":"Edith-Stein-Straße 4","school_type_entity":"Grundschule","school_type":"Grundschule","phone_number":"+49 6842 3566","old_slug":null,"official_id":"201021","name":"Grundschule Blieskastel, Kirchberg-Schlossberg","lon":7.257086,"lat":49.251037,"homepage_url":null,"federal_state_code":"SL","fax_number":"+49 6842 538812","email_address":null,"city":"Blieskastel-Lautzkirchen"},{"zip_code":"66440","street":"Griessackerweg 13","school_type_entity":"Grundschule","school_type":"Grundschule","phone_number":"+49 6842 2474","old_slug":null,"official_id":"201071","name":"Grundschule Breitfurt/Blickweiler","lon":7.2684335,"lat":49.2263891,"homepage_url":null,"federal_state_code":"SL","fax_number":"+49 6842 538148","email_address":null,"city":"Blieskastel-Breitfurt"},{"zip_code":"66440","street":"Kirkeler Straße 41","school_type_entity":"Grundschule","school_type":"Grundschule","phone_number":"+49 6842 6183","old_slug":null,"official_id":"201081","name":"Grundschule am Würzbacher Weiher","lon":7.201341,"lat":49.246038,"homepage_url":null,"federal_state_code":"SL","fax_number":"+49 6842 891750","email_address":null,"city":"Bliesk. - Niederwürzbach"},{"zip_code":"66453","street":"Burgstraße 11","school_type_entity":"Grundschule","school_type":"Grundschule","phone_number":"+49 6844 324","old_slug":null,"official_id":"201021","name":"Grundschule Medelsheim","lon":7.267909,"lat":49.144851,"homepage_url":null,"federal_state_code":"SL","fax_number":"+49 6844 991273","email_address":null,"city":"Gersheim-Medelsheim"},{"zip_code":"66453","street":"Grenzlandstraße 3","school_type_entity":"Grundschule","school_type":"Grundschule","phone_number":"+49 6843 283","old_slug":null,"official_id":"201031","name":"Grundschule Reinheim","lon":7.179604,"lat":49.139341,"homepage_url":null,"federal_state_code":"SL","fax_number":"+49 6843 902608","email_address":null,"city":"Gersheim-Reinheim"},{"zip_code":"66424","street":"Thomastraße 15","school_type_entity":"Grundschule","school_type":"Grundschule","phone_number":"+49 6841 78274","old_slug":null,"official_id":"101021","name":"Grundschule Langenäcker","lon":7.331111,"lat":49.332593,"homepage_url":null,"federal_state_code":"SL","fax_number":"+49 6841 756679","email_address":null,"city":"Homburg"},{"zip_code":"66424","street":"Rosenstraße 22","school_type_entity":"Grundschule","school_type":"Grundschule","phone_number":"+49 6841 3219","old_slug":null,"official_id":"101041","name":"Grundschule Bruchhof","lon":7.366427,"lat":49.344636,"homepage_url":null,"federal_state_code":"SL","fax_number":"+49 6841 120565","email_address":null,"city":"Homburg-Bruchhof"},{"zip_code":"66424","street":"Luitpoldstraße 9","school_type_entity":"Grundschule","school_type":"Grundschule","phone_number":"+49 6841 78465","old_slug":null,"official_id":"101051","name":"Grundschule Luitpold","lon":7.33352,"lat":49.341951,"homepage_url":null,"federal_state_code":"SL","fax_number":"+49 6841 757319","email_address":null,"city":"Homburg"},{"zip_code":"66424","street":"Akazienweg 3","school_type_entity":"Grundschule","school_type":"Grundschule","phone_number":"+49 6841 9930070","old_slug":null,"official_id":"101061","name":"Grundschule Sonnenfeld","lon":7.339683,"lat":49.311153,"homepage_url":null,"federal_state_code":"SL","fax_number":"+49 6841 99300715","email_address":null,"city":"Homburg"},{"zip_code":"66424","street":"Im Wieschen","school_type_entity":"Grundschule","school_type":"Grundschule","phone_number":"+49 6848 6366","old_slug":null,"official_id":"101081","name":"Grundschule Einöd","lon":7.321802,"lat":49.273661,"homepage_url":null,"federal_state_code":"SL","fax_number":"+49 6848 730009","email_address":null,"city":"Homburg-Einöd"},{"zip_code":"66459","street":"Talstraße 1-3","school_type_entity":"Grundschule","school_type":"Grundschule","phone_number":"+49 6841 80583","old_slug":null,"official_id":"101021","name":"Grundschule Limbach","lon":9.150975,"lat":49.472587,"homepage_url":null,"federal_state_code":"SL","fax_number":"+49 6841 890134","email_address":null,"city":"Kirkel-Limbach"},{"zip_code":"66459","street":"Friedhofstraße","school_type_entity":"Grundschule","school_type":"Grundschule","phone_number":"+49 6849 325","old_slug":null,"official_id":"101031","name":"Grundschule Kirkel-Neuhäusel","lon":7.230998,"lat":49.285169,"homepage_url":null,"federal_state_code":"SL","fax_number":"+49 6849 774","email_address":null,"city":"Kirkel-Neuhäusel"},{"zip_code":"66399","street":"Schützengasse 6","school_type_entity":"Grundschule","school_type":"Grundschule","phone_number":"+49 6803 2758","old_slug":null,"official_id":"201031","name":"Arnold-Rütter-Schule der Gemeinde Mandelbachtal","lon":7.181666,"lat":49.196805,"homepage_url":null,"federal_state_code":"SL","fax_number":null,"email_address":null,"city":"Mandelbachtal-Erfweiler-Ehlingen"},{"zip_code":"66399","street":"Theo - Carlen - Platz 4","school_type_entity":"Grundschule","school_type":"Grundschule","phone_number":"+49 6893 3881","old_slug":null,"official_id":"201051","name":"Theo-Carlen-Schule der Gemeinde Mandelbachtal","lon":7.144082,"lat":49.198191,"homepage_url":null,"federal_state_code":"SL","fax_number":"+49 6893 986104","email_address":null,"city":"Mandelbachtal-Ormesheim"},{"zip_code":"66386","street":"Robert-Koch-Straße 4","school_type_entity":"Grundschule","school_type":"Grundschule","phone_number":"+49 6894 37565","old_slug":null,"official_id":"201011","name":"Grundschule Albert-Weisgerber","lon":7.119337,"lat":49.289082,"homepage_url":null,"federal_state_code":"SL","fax_number":"+49 6894 382419","email_address":null,"city":"St.Ingbert"},{"zip_code":"66386","street":"Zur Rothell 20","school_type_entity":"Grundschule","school_type":"Grundschule","phone_number":"+49 6894 34567","old_slug":"66386-grundschule-st-ingbert-rischbachschule","official_id":"201021","name":"Grundschule Rischbachschule","lon":7.097139,"lat":49.286051,"homepage_url":"http://www.rischbachschule.de","federal_state_code":"SL","fax_number":"+49 6894 385989","email_address":"rischbachschule@t-online.de","city":"St.Ingbert"},{"zip_code":"66386","street":"Hochstraße 47","school_type_entity":"Grundschule","school_type":"Grundschule","phone_number":"+49 6894 52413","old_slug":null,"official_id":"201071","name":"Grundschule Rohrbach Pestalozzischule","lon":7.165317,"lat":49.279784,"homepage_url":null,"federal_state_code":"SL","fax_number":"+49 6894 959085","email_address":null,"city":"St.Ingbert-Rohrbach"},{"zip_code":"66386","street":"Fidelisstraße","school_type_entity":"Grundschule","school_type":"Grundschule","phone_number":"+49 6894 6913","old_slug":null,"official_id":"201101","name":"Grundschule Südschule","lon":7.128784,"lat":49.274704,"homepage_url":null,"federal_state_code":"SL","fax_number":"+49 6894 870214","email_address":null,"city":"St.Ingbert"},{"zip_code":"66386","street":"Hasenfelsstraße 12","school_type_entity":"Grundschule","school_type":"Grundschule","phone_number":"+49 6894 7710","old_slug":null,"official_id":"201112","name":"Montessori Grundschule Am Hasenfels","lon":7.144984,"lat":49.2418,"homepage_url":null,"federal_state_code":"SL","fax_number":"+49 6894 5823232","email_address":null,"city":"St. Ingbert-Oberwürzbach"},{"zip_code":"66629","street":"Rosenstr. 19 a","school_type_entity":"Grundschule","school_type":"Grundschule","phone_number":"+49 6855 344","old_slug":null,"official_id":"201021","name":"Grundschule Freisen/ Oberkirchen","lon":7.25463,"lat":49.523183,"homepage_url":null,"federal_state_code":"SL","fax_number":"+49 6855 184656","email_address":null,"city":"Freisen-Oberkirchen"},{"zip_code":"66646","street":"Marienstraße 21a","school_type_entity":"Grundschule","school_type":"Grundschule","phone_number":"+49 6853 9198590","old_slug":null,"official_id":"101011","name":"Grundschule Marpingen","lon":7.05532,"lat":49.450854,"homepage_url":null,"federal_state_code":"SL","fax_number":"+49 6853 9198598","email_address":null,"city":"Marpingen"},{"zip_code":"66640","street":"Goethestraße 8","school_type_entity":"Grundschule","school_type":"Grundschule","phone_number":"+49 6854 90","old_slug":null,"official_id":"201011","name":"Grundschule Namborn, Marienschule","lon":7.142682,"lat":49.518215,"homepage_url":null,"federal_state_code":"SL","fax_number":"+49 6854 90","email_address":null,"city":"Namborn"},{"zip_code":"66625","street":"Kirchstraße 6","school_type_entity":"Grundschule","school_type":"Grundschule","phone_number":"+49 6852 802395","old_slug":null,"official_id":"201011","name":"Grundschule der Gemeinde Nohfelden","lon":7.092526,"lat":49.566133,"homepage_url":null,"federal_state_code":"SL","fax_number":"+49 6852 802396","email_address":null,"city":"Nohfelden-Gonnesweiler"},{"zip_code":"66620","street":"Auf der Geig 12","school_type_entity":"Grundschule","school_type":"Grundschule","phone_number":"+49 6873 7131","old_slug":null,"official_id":"201031","name":"Grundschule Nonnweiler","lon":6.967284,"lat":49.609215,"homepage_url":null,"federal_state_code":"SL","fax_number":"+49 6873 992054","email_address":null,"city":"Nonnweiler"},{"zip_code":"66649","street":"Schwimmbadstraße 35","school_type_entity":"Grundschule","school_type":"Grundschule","phone_number":"+49 6854 802756","old_slug":null,"official_id":"201021","name":"Grundschule Oberthal","lon":7.079874,"lat":49.508196,"homepage_url":null,"federal_state_code":"SL","fax_number":"+49 6854 802757","email_address":null,"city":"Oberthal"},{"zip_code":"66606","street":"Am Flur 12","school_type_entity":"Grundschule","school_type":"Grundschule","phone_number":"+49 6851 2942","old_slug":null,"official_id":"101021","name":"Grundschule Oberlinxweiler","lon":7.146732,"lat":49.454396,"homepage_url":null,"federal_state_code":"SL","fax_number":"+49 6851 840306","email_address":null,"city":"St.Wendel-Oberlinxweiler"},{"zip_code":"66606","street":"Webergasse","school_type_entity":"Grundschule","school_type":"Grundschule","phone_number":"+49 6854 8557","old_slug":null,"official_id":"101051","name":"Grundschule Bliesen","lon":7.113314,"lat":49.49273,"homepage_url":null,"federal_state_code":"SL","fax_number":"+49 6854 803726","email_address":null,"city":"St.Wendel-Bliesen"},{"zip_code":"66606","street":"Ebereschenstraße 18","school_type_entity":"Grundschule","school_type":"Grundschule","phone_number":"+49 6856 404","old_slug":null,"official_id":"101061","name":"Grundschule Niederkirchen","lon":7.248523,"lat":49.469007,"homepage_url":null,"federal_state_code":"SL","fax_number":"+49 6856 892140","email_address":null,"city":"St. Wendel-Niederkirchen"},{"zip_code":"66606","street":"Nikolaus-Obertreis-Straße","school_type_entity":"Grundschule","school_type":"Grundschule","phone_number":"+49 6851 3221","old_slug":null,"official_id":"101071","name":"Grundschule Nikolaus-Obertreis","lon":7.1715026,"lat":49.4645622,"homepage_url":null,"federal_state_code":"SL","fax_number":"+49 6851 839371","email_address":null,"city":"St. Wendel"},{"zip_code":"66636","street":"Parkstraße 7-9","school_type_entity":"Grundschule","school_type":"Grundschule","phone_number":"+49 6853 6440","old_slug":null,"official_id":"101031","name":"Grundschule Hasborn-Dautweiler","lon":6.981883,"lat":49.491465,"homepage_url":null,"federal_state_code":"SL","fax_number":"+49 6853 892367","email_address":null,"city":"Tholey-Hasborn-Dautweiler"},{"zip_code":"66636","street":"Selbacher Straße 4","school_type_entity":"Grundschule","school_type":"Grundschule","phone_number":"+49 6853 5020561","old_slug":null,"official_id":"101051","name":"Grundschule Theley","lon":7.022935,"lat":49.501724,"homepage_url":null,"federal_state_code":"SL","fax_number":"+49 6853 5020562","email_address":null,"city":"Tholey-Theley"},{"zip_code":"66115","street":"Von der Heydt 9a","school_type_entity":"Förderschule","school_type":"Förderschule","phone_number":"+49 681 7535950","old_slug":null,"official_id":"118011","name":"Förderschule soziale Entwicklung","lon":6.96088,"lat":49.241434,"homepage_url":null,"federal_state_code":"SL","fax_number":"+49 681 75359520","email_address":null,"city":"Saarbrücken-Von der Heydt"},{"zip_code":"66113","street":"Ziegelstrasse","school_type_entity":"Förderschule","school_type":"Förderschule","phone_number":"+49 681 47741","old_slug":null,"official_id":"317011","name":"Förderschule Lernen","lon":6.987662,"lat":49.246887,"homepage_url":null,"federal_state_code":"SL","fax_number":"+49 681 498693","email_address":null,"city":"Saarbrücken"},{"zip_code":"66126","street":"In den Grasgärten","school_type_entity":"Förderschule","school_type":"Förderschule","phone_number":"+49 6898 81826","old_slug":null,"official_id":"317021","name":"Förderschule Lernen","lon":6.9154553,"lat":49.2482586,"homepage_url":null,"federal_state_code":"SL","fax_number":"+49 6898 81821","email_address":null,"city":"Saarbrücken-Altenkessel"},{"zip_code":"66125","street":"Schulstraße 93","school_type_entity":"Förderschule","school_type":"Förderschule","phone_number":"+49 681 36155","old_slug":null,"official_id":"317031","name":"Förderschule Lernen Dudweiler","lon":7.007276,"lat":49.268722,"homepage_url":null,"federal_state_code":"SL","fax_number":"+49 681 31230","email_address":null,"city":"Saarbrücken-Dudweiler"},{"zip_code":"66125","street":"Winterbachsroth 9","school_type_entity":"Förderschule","school_type":"Förderschule","phone_number":"+49 6897 952090","old_slug":null,"official_id":"420021","name":"Förderschule geistige Entwicklung","lon":7.03638,"lat":49.275879,"homepage_url":null,"federal_state_code":"SL","fax_number":"+49 6897 9520905","email_address":null,"city":"Saarbrücken-Dudweiler"},{"zip_code":"66299","street":"Hofstraße 5a","school_type_entity":"Förderschule","school_type":"Förderschule","phone_number":"+49 6897 88223","old_slug":null,"official_id":"217011","name":"Förderschule Lernen -Hofschule-","lon":7.094364,"lat":49.333148,"homepage_url":null,"federal_state_code":"SL","fax_number":"+49 6897 88271","email_address":null,"city":"Friedrichsthal-Bildstock"},{"zip_code":"66265","street":"Goethestraße 8","school_type_entity":"Förderschule","school_type":"Förderschule","phone_number":"+49 6806 9949930","old_slug":null,"official_id":"420011","name":"Förderschule geistige Entwicklung Heusweiler","lon":6.924043,"lat":49.336842,"homepage_url":null,"federal_state_code":"SL","fax_number":"+49 6806 9949939","email_address":null,"city":"Heusweiler"},{"zip_code":"66346","street":"Köllertalstrasse 145","school_type_entity":"Förderschule","school_type":"Förderschule","phone_number":"+49 6806 46630","old_slug":null,"official_id":"121011","name":"Förderschule körperliche und motorische Entwicklung","lon":6.891063,"lat":49.29443,"homepage_url":null,"federal_state_code":"SL","fax_number":"+49 6806 46649","email_address":null,"city":"Püttlingen"},{"zip_code":"66280","street":"Brennender-Berg-Str.","school_type_entity":"Förderschule","school_type":"Förderschule","phone_number":"+49 6897 3512","old_slug":null,"official_id":"227011","name":"Förderschule Sprache Weierwiesschule","lon":7.0536111111111,"lat":49.288888888889,"homepage_url":null,"federal_state_code":"SL","fax_number":"+49 6897 567113","email_address":null,"city":"Sulzbach-Neuweiler"},{"zip_code":"66333","street":"Friedhofstraße 9","school_type_entity":"Förderschule","school_type":"Förderschule","phone_number":"+49 6898 78235","old_slug":null,"official_id":"117011","name":"Förderschule Lernen","lon":6.833536,"lat":49.237487,"homepage_url":null,"federal_state_code":"SL","fax_number":"+49 6898 78286","email_address":null,"city":"Völklingen-Geislautern"},{"zip_code":"66679","street":"Im Schneppenbruch 14","school_type_entity":"Förderschule","school_type":"Förderschule","phone_number":"+49 6872 2992","old_slug":null,"official_id":"217011","name":"Förderschule Lernen, Schule Am Kappwald","lon":6.789229,"lat":49.501918,"homepage_url":null,"federal_state_code":"SL","fax_number":"+49 6872 887596","email_address":null,"city":"Losheim am See/Niederlosheim"},{"zip_code":"66663","street":"Ringstrasse 3","school_type_entity":"Förderschule","school_type":"Förderschule","phone_number":"+49 6861 78461","old_slug":null,"official_id":"117011","name":"Förderschule Lernen -Schule Auf der Wild-","lon":6.676746,"lat":49.473544,"homepage_url":null,"federal_state_code":"SL","fax_number":"+49 6861 780907","email_address":null,"city":"Merzig-Brotdorf"},{"zip_code":"66663","street":"Zum Broch 3","school_type_entity":"Förderschule","school_type":"Förderschule","phone_number":"+49 6861 2668","old_slug":null,"official_id":"120011","name":"Förderschule geistige Entwicklung","lon":6.682816,"lat":49.441763,"homepage_url":null,"federal_state_code":"SL","fax_number":"+49 6861 792656","email_address":null,"city":"Merzig-Merchingen"},{"zip_code":"66687","street":"Am Wergkäulchen 22","school_type_entity":"Förderschule","school_type":"Förderschule","phone_number":"+49 6871 2588","old_slug":null,"official_id":"217011","name":"Förderschule Lernen -Noswendel-","lon":6.895606,"lat":49.527555,"homepage_url":null,"federal_state_code":"SL","fax_number":"+49 6871 921640","email_address":null,"city":"Wadern-Noswendel"},{"zip_code":"66571","street":"Am Rotenberg 3","school_type_entity":"Förderschule","school_type":"Förderschule","phone_number":"+49 6827 415","old_slug":null,"official_id":"220012","name":"Private Förderschule geistige Entwicklung Rothenbergschule","lon":7.011977,"lat":49.42156,"homepage_url":null,"federal_state_code":"SL","fax_number":"+49 6827 3552","email_address":null,"city":"Eppelborn-Dirmingen"},{"zip_code":"66557","street":"Am Markt","school_type_entity":"Förderschule","school_type":"Förderschule","phone_number":"+49 6825 3344","old_slug":null,"official_id":"217011","name":"Förderschule Lernen","lon":7.03333,"lat":49.36667,"homepage_url":null,"federal_state_code":"SL","fax_number":"+49 6825 406433","email_address":null,"city":"Illingen-Uchtelfangen"},{"zip_code":"66538","street":"Jägermeisterpfad","school_type_entity":"Förderschule","school_type":"Förderschule","phone_number":"+49 6821 2906","old_slug":null,"official_id":"117011","name":"Förderschule Lernen","lon":7.186056,"lat":49.356224,"homepage_url":null,"federal_state_code":"SL","fax_number":"+49 6821 290640","email_address":null,"city":"Neunkirchen"},{"zip_code":"66538","street":"Hardenbergstraße 2","school_type_entity":"Förderschule","school_type":"Förderschule","phone_number":"+49 6821 860247","old_slug":null,"official_id":"118012","name":"Private Förderschule soziale Entwicklung","lon":7.192608,"lat":49.340383,"homepage_url":null,"federal_state_code":"SL","fax_number":"+49 6821 860244","email_address":null,"city":"Neunkirchen"},{"zip_code":"66538","street":"Jägermeisterpfad","school_type_entity":"Förderschule","school_type":"Förderschule","phone_number":"+49 6821 29050","old_slug":null,"official_id":"120011","name":"Förderschule geistige Entwicklung","lon":7.186056,"lat":49.356224,"homepage_url":null,"federal_state_code":"SL","fax_number":"+49 6821 290543","email_address":null,"city":"Neunkirchen"},{"zip_code":"66564","street":"Am Buehl 8","school_type_entity":"Förderschule","school_type":"Förderschule","phone_number":"+49 6824 91107","old_slug":null,"official_id":"220012","name":"Private Förderschule geistige Entwicklung","lon":7.155663,"lat":49.402037,"homepage_url":null,"federal_state_code":"SL","fax_number":"+49 6824 91109","email_address":null,"city":"Ottweiler-Mainzweiler"},{"zip_code":"66763","street":"Luisenstraße 4","school_type_entity":"Förderschule","school_type":"Förderschule","phone_number":"+49 6831 767171","old_slug":null,"official_id":"220012","name":"Schule am Ökosee AWO Förderschule geistige Entwicklung","lon":6.714917,"lat":49.348896,"homepage_url":null,"federal_state_code":"SL","fax_number":"+49 6831 767177","email_address":null,"city":"Dillingen"},{"zip_code":"66822","street":"An der Ziegelhütte 1","school_type_entity":"Förderschule","school_type":"Förderschule","phone_number":"+49 6881 3209","old_slug":null,"official_id":"217011","name":"Förderschule Lernen","lon":6.904996,"lat":49.415156,"homepage_url":null,"federal_state_code":"SL","fax_number":"+49 6881 53060","email_address":null,"city":"Lebach"},{"zip_code":"66822","street":"Dillinger Straße 69","school_type_entity":"Förderschule","school_type":"Förderschule","phone_number":"+49 6881 928311","old_slug":null,"official_id":"223011","name":"Förderschule für Gehörlose und Schwerhörige","lon":6.891409,"lat":49.404611,"homepage_url":null,"federal_state_code":"SL","fax_number":"+49 6881 928309","email_address":null,"city":"Lebach"},{"zip_code":"66822","street":"Dillinger Straße 69","school_type_entity":"Förderschule","school_type":"Förderschule","phone_number":"+49 6881 928321","old_slug":null,"official_id":"226011","name":"Förderschule für Blinde und Sehbehinderte","lon":6.891409,"lat":49.404611,"homepage_url":null,"federal_state_code":"SL","fax_number":"+49 6881 928400","email_address":null,"city":"Lebach"},{"zip_code":"66740","street":"Zeughausstraße 32","school_type_entity":"Förderschule","school_type":"Förderschule","phone_number":"+49 6831 3843","old_slug":null,"official_id":"117011","name":"Förderschule Lernen","lon":6.756091,"lat":49.317758,"homepage_url":null,"federal_state_code":"SL","fax_number":"+49 6831 460035","email_address":null,"city":"Saarlouis"},{"zip_code":"66740","street":"Adolf-Hetzler-Straße 3","school_type_entity":"Förderschule","school_type":"Förderschule","phone_number":"+49 6831 61277","old_slug":null,"official_id":"118011","name":"Förderschule soziale Entwicklung","lon":6.754432,"lat":49.314572,"homepage_url":null,"federal_state_code":"SL","fax_number":"+49 6831 964794","email_address":null,"city":"Saarlouis"},{"zip_code":"66793","street":"Bahnhofstraße 269","school_type_entity":"Förderschule","school_type":"Förderschule","phone_number":"+49 6838 983900","old_slug":null,"official_id":"120011","name":"Förderschule geistige Entwicklung","lon":6.793672,"lat":49.368324,"homepage_url":null,"federal_state_code":"SL","fax_number":"+49 6838 983901","email_address":null,"city":"Saarwellingen"},{"zip_code":"66773","street":"Alleestraße 20","school_type_entity":"Förderschule","school_type":"Förderschule","phone_number":"+49 6834 953900","old_slug":null,"official_id":"117011","name":"Anne-Frank-Schule Saarlouis Dependance Schwalbach","lon":6.797597,"lat":49.295446,"homepage_url":null,"federal_state_code":"SL","fax_number":"+49 6834 953901","email_address":null,"city":"Schwalbach"},{"zip_code":"66440","street":"Am Schloss 10 - 10a","school_type_entity":"Förderschule","school_type":"Förderschule","phone_number":"+49 6842 924328","old_slug":null,"official_id":"217011","name":"Förderschule Lernen - Franz-Carl-Schule","lon":7.255007,"lat":49.236211,"homepage_url":null,"federal_state_code":"SL","fax_number":"+49 6842 924317","email_address":null,"city":"Blieskastel"},{"zip_code":"66453","street":"Oben am Dorf 60","school_type_entity":"Förderschule","school_type":"Förderschule","phone_number":"+49 6843 809","old_slug":null,"official_id":"220012","name":"Anna Betzner Schule  Förderschule G in freier Trägerschaft","lon":7.228198,"lat":49.157038,"homepage_url":null,"federal_state_code":"SL","fax_number":"+49 6843 809","email_address":null,"city":"Gersheim-Walsheim"},{"zip_code":"66424","street":"Warburgring 80","school_type_entity":"Förderschule","school_type":"Förderschule","phone_number":"+49 6841 170092","old_slug":null,"official_id":"000001","name":"Der Landesbeauftragte für den Krankenhaus- und Hausunterricht","lon":7.338854,"lat":49.306691,"homepage_url":null,"federal_state_code":"SL","fax_number":"+49 6841 170096","email_address":null,"city":"Homburg"},{"zip_code":"66424","street":"Spandauer Straße","school_type_entity":"Förderschule","school_type":"Förderschule","phone_number":"+49 6841 972940","old_slug":null,"official_id":"117011","name":"Förderschule Lernen","lon":7.3283072,"lat":49.3406349,"homepage_url":null,"federal_state_code":"SL","fax_number":"+49 6841 9729430","email_address":null,"city":"Homburg"},{"zip_code":"66424","street":"Spandauer Straße","school_type_entity":"Förderschule","school_type":"Förderschule","phone_number":"+49 6841 972940","old_slug":null,"official_id":"120011","name":"Förderschule geistige Entwicklung","lon":7.3283072,"lat":49.3406349,"homepage_url":null,"federal_state_code":"SL","fax_number":null,"email_address":null,"city":"Homburg"},{"zip_code":"66424","street":"Universitätskliniken 84","school_type_entity":"Förderschule","school_type":"Förderschule","phone_number":"+49 6841 1627400","old_slug":null,"official_id":"121011","name":"Förderschule körperliche und motorische Entwicklung","lon":7.340201,"lat":49.303134,"homepage_url":null,"federal_state_code":"SL","fax_number":"+49 6841 1627514","email_address":null,"city":"Homburg"},{"zip_code":"66386","street":"Zur Schnapphahner Dell 1","school_type_entity":"Förderschule","school_type":"Förderschule","phone_number":"+49 6894 9989920","old_slug":null,"official_id":"217011","name":"Förderschule Lernen","lon":7.101926,"lat":49.270124,"homepage_url":null,"federal_state_code":"SL","fax_number":"+49 6894 9989925","email_address":null,"city":"St. Ingbert"},{"zip_code":"66640","street":"Am Hirtenbrunnen 7","school_type_entity":"Förderschule","school_type":"Förderschule","phone_number":"+49 6851 3160","old_slug":null,"official_id":"220011","name":"Förderschule geistige Entwicklung","lon":7.163946,"lat":49.495608,"homepage_url":null,"federal_state_code":"SL","fax_number":"+49 6851 839896","email_address":null,"city":"Namborn-Baltersweiler"},{"zip_code":"66649","street":"Schwimmbadstraße 39","school_type_entity":"Förderschule","school_type":"Förderschule","phone_number":"+49 6854 7314","old_slug":"66649-ers-namborn-oberthal","official_id":"217011","name":"Förderschule Lernen","lon":7.078162,"lat":49.509924,"homepage_url":"http://www.ers-namborn-oberthal.eu/","federal_state_code":"SL","fax_number":"+49 6854 7230","email_address":"schule@ers-namborn-oberthal.de","city":"Oberthal"},{"zip_code":"66606","street":"Pestalozzistraße 7","school_type_entity":"Förderschule","school_type":"Förderschule","phone_number":"+49 6851 6870","old_slug":null,"official_id":"119011","name":"Förderschule soziale Entwicklung - Wingert-Schule","lon":7.158928,"lat":49.472327,"homepage_url":null,"federal_state_code":"SL","fax_number":"+49 6851 806370","email_address":null,"city":"St. Wendel"},{"zip_code":"66121","street":"Sachsenweg 3","school_type_entity":"Realschule","school_type":"Realschule","phone_number":"+49 681 6683512","old_slug":"66121-willi-graf-realschule","official_id":"307042","name":"Willi-Graf-Realschule","lon":7.006891,"lat":49.234129,"homepage_url":"http://www.Willi-Graf-Schulen.de","federal_state_code":"SL","fax_number":"+49 681 6683530","email_address":"willi-graf-rs@t-online.de","city":"Saarbrücken"},{"zip_code":"66540","street":"Prälat-Schütz-Straße 15","school_type_entity":"Realschule","school_type":"Realschule","phone_number":"+49 6821 95040","old_slug":null,"official_id":"108012","name":"Maximilian-Kolbe-Schule","lon":7.189038,"lat":49.366518,"homepage_url":null,"federal_state_code":"SL","fax_number":"+49 6821 950444","email_address":null,"city":"Neunkirchen-Wiebelskirchen"},{"zip_code":"66386","street":"Auf der Meß 16","school_type_entity":"Realschule","school_type":"Realschule","phone_number":"+49 6894 2242","old_slug":null,"official_id":"207022","name":"Albertus-Magnus-Realschule (privat)","lon":7.115909,"lat":49.277564,"homepage_url":null,"federal_state_code":"SL","fax_number":"+49 6894 3287","email_address":null,"city":"St. Ingbert"},{"zip_code":"66121","street":"Sachsenweg 8","school_type_entity":"erweiterte Realschule","school_type":"erweiterte Realschule","phone_number":"+49 681 635032","old_slug":null,"official_id":"350011","name":"Erweiterte Realschule Bruchwiese","lon":7.007854,"lat":49.233296,"homepage_url":null,"federal_state_code":"SL","fax_number":"+49 681 61598","email_address":null,"city":"Saarbrücken"},{"zip_code":"66127","street":"Hauptstraße 53","school_type_entity":"erweiterte Realschule","school_type":"erweiterte Realschule","phone_number":"+49 6898 37558","old_slug":"66127-erweiterte-realschule-saarbruecken-klarenthal","official_id":"350041","name":"Erweiterte Realschule Klarenthal","lon":6.931615,"lat":49.23677,"homepage_url":"http://www.ers-klarenthal.de","federal_state_code":"SL","fax_number":"+49 6898 935899","email_address":"ers-klarenthal@saarnet.de","city":"Saarbrücken"},{"zip_code":"66130","street":"Saargemünder Straße 157","school_type_entity":"erweiterte Realschule","school_type":"erweiterte Realschule","phone_number":"+49 681 8739715","old_slug":null,"official_id":"450021","name":"Erweiterte Realschule Güdingen","lon":7.027992,"lat":49.200915,"homepage_url":null,"federal_state_code":"SL","fax_number":"+49 681 8739990","email_address":null,"city":"Saarbrücken"},{"zip_code":"66130","street":"Schulstraße 30","school_type_entity":"erweiterte Realschule","school_type":"erweiterte Realschule","phone_number":"+49 693 802759","old_slug":null,"official_id":"450052","name":"Private Erweiterte Realschule des Don-Bosco-Schulvereins","lon":7.067612,"lat":49.201295,"homepage_url":null,"federal_state_code":"SL","fax_number":"+49 6893 8010127","email_address":null,"city":"Saarbrücken-Fechingen"},{"zip_code":"66265","street":"Schillerstraße 65","school_type_entity":"erweiterte Realschule","school_type":"erweiterte Realschule","phone_number":"+49 6806 6308","old_slug":null,"official_id":"250011","name":"Erweiterte Realschule Heusweiler","lon":6.923151,"lat":49.333335,"homepage_url":null,"federal_state_code":"SL","fax_number":"+49 6806 6634","email_address":null,"city":"Heusweiler"},{"zip_code":"66271","street":"Wintringer Straße 78","school_type_entity":"erweiterte Realschule","school_type":"erweiterte Realschule","phone_number":"+49 6805 1445","old_slug":null,"official_id":"450011","name":"Erweiterte Realschule Kleinblittersdorf","lon":7.041739,"lat":49.163134,"homepage_url":null,"federal_state_code":"SL","fax_number":"+49 6805 8427","email_address":null,"city":"Kleinblittersdorf"},{"zip_code":"66346","street":"Pickardstraße 33","school_type_entity":"erweiterte Realschule","school_type":"erweiterte Realschule","phone_number":"+49 6898 64421","old_slug":null,"official_id":"150011","name":"Erweiterte Realschule Püttlingen","lon":6.886432,"lat":49.287387,"homepage_url":null,"federal_state_code":"SL","fax_number":"+49 6898 64431","email_address":null,"city":"Püttlingen"},{"zip_code":"66287","street":"Schulzentrum Taubenfeld","school_type_entity":"erweiterte Realschule","school_type":"erweiterte Realschule","phone_number":"+49 6897 62212","old_slug":null,"official_id":"250011","name":"Erweiterte Realschule Quierschied","lon":7.03333,"lat":49.31667,"homepage_url":null,"federal_state_code":"SL","fax_number":"+49 6897 63478","email_address":null,"city":"Quierschied"},{"zip_code":"66280","street":"Parkstraße 10","school_type_entity":"erweiterte Realschule","school_type":"erweiterte Realschule","phone_number":"+49 6897 952095","old_slug":"66280-erweiterte-realschule-am-vopeliuspark-sulzbach","official_id":"250011","name":"Erweiterte Realschule Am Vopeliuspark Sulzbach","lon":7.060334,"lat":49.303969,"homepage_url":"http://ers-sulzbach.homepage.t-online.de","federal_state_code":"SL","fax_number":"+49 6897 952095","email_address":"roswitha.bachinger@gbs-schulen.de","city":"Sulzbach"},{"zip_code":"66333","street":"Heinestraße 70","school_type_entity":"erweiterte Realschule","school_type":"erweiterte Realschule","phone_number":"+49 6898 9149730","old_slug":null,"official_id":"150011","name":"Erweiterte Realschule Am Sonnenhügel","lon":6.867823,"lat":49.257411,"homepage_url":null,"federal_state_code":"SL","fax_number":"+49 6898 296911","email_address":null,"city":"Völklingen"},{"zip_code":"66333","street":"Heinestraße 70","school_type_entity":"erweiterte Realschule","school_type":"erweiterte Realschule","phone_number":"+49 6898 9149730","old_slug":null,"official_id":"150021","name":"Hermann-Neuberger-Schule Erweiterte Realschule Völklingen","lon":6.867823,"lat":49.257411,"homepage_url":null,"federal_state_code":"SL","fax_number":"+49 6898 296911","email_address":null,"city":"Völklingen"},{"zip_code":"66701","street":"Hindenburgstraße 19","school_type_entity":"erweiterte Realschule","school_type":"erweiterte Realschule","phone_number":"+49 6835 608190","old_slug":"66701-ers-beckingen","official_id":"250011","name":"Friedrich-Bernhard-Karcher-Schule Beckingen -Erweiterte Realschule-","lon":6.704213,"lat":49.388015,"homepage_url":"http://www.ers-beckingen.de","federal_state_code":"SL","fax_number":"+49 6835 608199","email_address":"ers@stock-xchange.de","city":"Beckingen"},{"zip_code":"66663","street":"Von-Boch-Straße 75","school_type_entity":"erweiterte Realschule","school_type":"erweiterte Realschule","phone_number":"+49 6861 770770","old_slug":null,"official_id":"150011","name":"Erweiterte Realschule Merzig","lon":6.63556,"lat":49.436392,"homepage_url":null,"federal_state_code":"SL","fax_number":"+49 6861 7707729","email_address":null,"city":"Merzig"},{"zip_code":"66687","street":"Gartenfeldstraße 23","school_type_entity":"erweiterte Realschule","school_type":"erweiterte Realschule","phone_number":"+49 6871 923020","old_slug":null,"official_id":"250011","name":"Graf Anton Schule Wadern -Erweiterte Realschule-","lon":6.88757,"lat":49.539803,"homepage_url":null,"federal_state_code":"SL","fax_number":"+49 6871 9230230","email_address":null,"city":"Wadern"},{"zip_code":"66709","street":"Am Marktplatz 1","school_type_entity":"erweiterte Realschule","school_type":"erweiterte Realschule","phone_number":"+49 6876 345","old_slug":"66709-erweiterte-realschule-weiskirchen","official_id":"250011","name":"Eichenlaubschule Weiskirchen -Erweiterte Realschule-","lon":6.817538,"lat":49.555815,"homepage_url":"http://www.ersweiskirchen.de/","federal_state_code":"SL","fax_number":"+49 6876 7540","email_address":"office@ersweiskirchen.de","city":"Weiskirchen"},{"zip_code":"66571","street":"Hellbergstraße 21","school_type_entity":"erweiterte Realschule","school_type":"erweiterte Realschule","phone_number":"+49 6881 962127","old_slug":null,"official_id":"250011","name":"Erweiterte Realschule Eppelborn","lon":6.964012,"lat":49.404836,"homepage_url":null,"federal_state_code":"SL","fax_number":"+49 6881 962129","email_address":null,"city":"Eppelborn"},{"zip_code":"66557","street":"Schwarzer Weg 2","school_type_entity":"erweiterte Realschule","school_type":"erweiterte Realschule","phone_number":"+49 6825 94200","old_slug":"66557-erweiterte-realschule-illingen","official_id":"250011","name":"Erweiterte Realschule Illingen","lon":7.042521,"lat":49.367616,"homepage_url":"http://www.ersillingen.de","federal_state_code":"SL","fax_number":"+49 6825 942011","email_address":"webmaster@ersillingen.de","city":"Illingen"},{"zip_code":"66589","street":"Bildstockstr. 127","school_type_entity":"erweiterte Realschule","school_type":"erweiterte Realschule","phone_number":"+49 6825 42261","old_slug":null,"official_id":"250011","name":"Erweiterte Realschule Merchweiler - Max von der Grün Schule","lon":7.077866,"lat":49.362267,"homepage_url":null,"federal_state_code":"SL","fax_number":"+49 6825 42262","email_address":null,"city":"Merchweiler"},{"zip_code":"66538","street":"Lutherstraße 2","school_type_entity":"erweiterte Realschule","school_type":"erweiterte Realschule","phone_number":"+49 6821 999710","old_slug":null,"official_id":"150011","name":"Erweiterte Realschule Neunkirchen Stadtmitte und Wiebelskirchen","lon":7.176264,"lat":49.346785,"homepage_url":null,"federal_state_code":"SL","fax_number":"+49 6821 9997130","email_address":null,"city":"Neunkirchen"},{"zip_code":"66539","street":"Pestalozzistraße","school_type_entity":"erweiterte Realschule","school_type":"erweiterte Realschule","phone_number":"+49 6821 94090","old_slug":null,"official_id":"150021","name":"Erweiterte Realschule Neunkirchen -Wellesweiler","lon":7.226654,"lat":49.347308,"homepage_url":null,"federal_state_code":"SL","fax_number":"+49 6821 940940","email_address":null,"city":"Neunkirchen"},{"zip_code":"66564","street":"Seminarstraße 56","school_type_entity":"erweiterte Realschule","school_type":"erweiterte Realschule","phone_number":"+49 6824 5320","old_slug":null,"official_id":"250011","name":"Erweiterte Realschule Ottweiler","lon":7.157514,"lat":49.401034,"homepage_url":null,"federal_state_code":"SL","fax_number":"+49 6824 4361","email_address":null,"city":"Ottweiler"},{"zip_code":"66583","street":"Am Ring 39 a","school_type_entity":"erweiterte Realschule","school_type":"erweiterte Realschule","phone_number":"+49 6821 97000","old_slug":null,"official_id":"150011","name":"Erweiterte Realschule Spiesen-Elversberg","lon":7.134318,"lat":49.319441,"homepage_url":null,"federal_state_code":"SL","fax_number":"+49 6821 970013","email_address":null,"city":"Spiesen-Elversberg"},{"zip_code":"66763","street":"Industriestraße 29","school_type_entity":"erweiterte Realschule","school_type":"erweiterte Realschule","phone_number":"+49 6831 9869600","old_slug":null,"official_id":"250011","name":"Schule am Römerkastell Dillingen - Erweiterte Realschule","lon":6.716099,"lat":49.350422,"homepage_url":null,"federal_state_code":"SL","fax_number":"+49 6831 9869601","email_address":null,"city":"Dillingen"},{"zip_code":"66822","street":"Mottener Straße 52","school_type_entity":"erweiterte Realschule","school_type":"erweiterte Realschule","phone_number":"+49 6881 3065","old_slug":null,"official_id":"250011","name":"Theeltalschule -Erweiterte Realschule- Lebach","lon":6.902927,"lat":49.414291,"homepage_url":null,"federal_state_code":"SL","fax_number":"+49 6881 3025","email_address":null,"city":"Lebach"},{"zip_code":"66822","street":"Dillinger Straße 67","school_type_entity":"erweiterte Realschule","school_type":"erweiterte Realschule","phone_number":"+49 6881 91323","old_slug":null,"official_id":"250012","name":"Nikolaus-Gross-Schule (Erweiterte Realschule)","lon":6.895171,"lat":49.404791,"homepage_url":null,"federal_state_code":"SL","fax_number":"+49 6881 91324","email_address":null,"city":"Lebach"},{"zip_code":"66809","street":"Josefstraße 11","school_type_entity":"erweiterte Realschule","school_type":"erweiterte Realschule","phone_number":"+49 6838 983706","old_slug":null,"official_id":"250011","name":"Erweiterte Realschule","lon":6.783348,"lat":49.380294,"homepage_url":null,"federal_state_code":"SL","fax_number":"+49 6838 983708","email_address":null,"city":"Nalbach"},{"zip_code":"66780","street":"Beckinger Straße 38","school_type_entity":"erweiterte Realschule","school_type":"erweiterte Realschule","phone_number":"+49 6835 92240","old_slug":null,"official_id":"350011","name":"Erweiterte Realschule Rehlingen-Siersburg","lon":6.682702,"lat":49.377395,"homepage_url":null,"federal_state_code":"SL","fax_number":"+49 6835 922414","email_address":null,"city":"Rehlingen-Siersburg"},{"zip_code":"66740","street":"St. Nazairer Allee 6","school_type_entity":"erweiterte Realschule","school_type":"erweiterte Realschule","phone_number":"+49 6831 41878","old_slug":null,"official_id":"150011","name":"Erweiterte Realschule I","lon":6.74288,"lat":49.32305,"homepage_url":null,"federal_state_code":"SL","fax_number":"+49 6831 41898","email_address":null,"city":"Saarlouis"},{"zip_code":"66740","street":"Kreuzbergstraße 87","school_type_entity":"erweiterte Realschule","school_type":"erweiterte Realschule","phone_number":"+49 6831 80056","old_slug":null,"official_id":"150021","name":"Erweiterte Realschule II","lon":6.781331,"lat":49.331832,"homepage_url":null,"federal_state_code":"SL","fax_number":"+49 6831 80057","email_address":null,"city":"Saarlouis"},{"zip_code":"66793","street":"An der Waldwies 2-4","school_type_entity":"erweiterte Realschule","school_type":"erweiterte Realschule","phone_number":"+49 6838 90060","old_slug":null,"official_id":"150011","name":"Erweiterte Realschule Saarwellingen","lon":6.83333,"lat":49.35,"homepage_url":null,"federal_state_code":"SL","fax_number":"+49 6838 900620","email_address":null,"city":"Saarwellingen"},{"zip_code":"66839","street":"Wilhelm-Busch-Straße 11","school_type_entity":"erweiterte Realschule","school_type":"erweiterte Realschule","phone_number":"+49 6887 2570","old_slug":null,"official_id":"250011","name":"Erweiterte Realschule Schmelz","lon":6.848665,"lat":49.442066,"homepage_url":null,"federal_state_code":"SL","fax_number":"+49 6887 887126","email_address":null,"city":"Schmelz"},{"zip_code":"66773","street":"Weiherstraße 24a","school_type_entity":"erweiterte Realschule","school_type":"erweiterte Realschule","phone_number":"+49 6834 953953","old_slug":null,"official_id":"150011","name":"Erweiterte Realschule Schwalbach","lon":6.814084,"lat":49.306365,"homepage_url":null,"federal_state_code":"SL","fax_number":"+49 6834 953954","email_address":null,"city":"Schwalbach"},{"zip_code":"66802","street":"Comeniusstraße 22","school_type_entity":"erweiterte Realschule","school_type":"erweiterte Realschule","phone_number":"+49 6836 2531","old_slug":null,"official_id":"350011","name":"Erweiterte Realschule Überherrn","lon":6.70581,"lat":49.23264,"homepage_url":null,"federal_state_code":"SL","fax_number":"+49 6836 2031","email_address":null,"city":"Überherrn"},{"zip_code":"66798","street":"Bungertstraße 30","school_type_entity":"erweiterte Realschule","school_type":"erweiterte Realschule","phone_number":"+49 6831 964585","old_slug":null,"official_id":"350011","name":"Erweiterte Realschule Wallerfangen","lon":6.713363,"lat":49.324331,"homepage_url":null,"federal_state_code":"SL","fax_number":"+49 6831 964594","email_address":null,"city":"Wallerfangen"},{"zip_code":"66440","street":"Schulzentrum","school_type_entity":"erweiterte Realschule","school_type":"erweiterte Realschule","phone_number":"+49 6842 923760","old_slug":null,"official_id":"250011","name":"Erweiterte Realschule Blieskastel","lon":7.25444,"lat":49.24222,"homepage_url":null,"federal_state_code":"SL","fax_number":"+49 6842 923766","email_address":null,"city":"Blieskastel"},{"zip_code":"66424","street":"Virchowstraße 7","school_type_entity":"erweiterte Realschule","school_type":"erweiterte Realschule","phone_number":"+49 6841 92330","old_slug":null,"official_id":"150011","name":"Erweiterte Realschule Homburg I","lon":7.338603,"lat":49.31497,"homepage_url":null,"federal_state_code":"SL","fax_number":"+49 6841 923326","email_address":null,"city":"Homburg"},{"zip_code":"66424","street":"Cranachstraße 7","school_type_entity":"erweiterte Realschule","school_type":"erweiterte Realschule","phone_number":"+49 6841 972930","old_slug":"66424-erweiterte-realschule-homburg-ii","official_id":"150021","name":"Erweiterte Realschule Homburg II","lon":7.325007,"lat":49.333053,"homepage_url":"http://www.ers-homburg2.de","federal_state_code":"SL","fax_number":"+49 6841 9729321","email_address":"kblum@ers-homburg2.de","city":"Homburg"},{"zip_code":"66459","street":"Hauptstraße 75","school_type_entity":"erweiterte Realschule","school_type":"erweiterte Realschule","phone_number":"+49 6841 980040","old_slug":null,"official_id":"150011","name":"Erweiterte Realschule Kirkel-Limbach","lon":12.802456,"lat":50.859967,"homepage_url":null,"federal_state_code":"SL","fax_number":"+49 6841 980429","email_address":null,"city":"Kirkel-Limbach"},{"zip_code":"66399","street":"Vichter Straße 1","school_type_entity":"erweiterte Realschule","school_type":"erweiterte Realschule","phone_number":"+49 6803 39000","old_slug":null,"official_id":"250011","name":"Erweiterte Realschule Mandelbachtal","lon":7.155979,"lat":49.21823,"homepage_url":null,"federal_state_code":"SL","fax_number":"+49 6803 390020","email_address":null,"city":"Mandelbachtal"},{"zip_code":"66386","street":"Im Schmelzerwald 66","school_type_entity":"erweiterte Realschule","school_type":"erweiterte Realschule","phone_number":"+49 6894 96090","old_slug":"66386-schmelzerwaldschule-erweiterte-realschule-st-ingbert-i","official_id":"250011","name":"Erweiterte Realschule I St. Ingbert","lon":7.104844,"lat":49.271203,"homepage_url":"http://www.ers-schmelzerwaldschule.de/","federal_state_code":"SL","fax_number":"+49 6894 960918","email_address":"schmelzerwaldschule@web.de","city":"St. Ingbert"},{"zip_code":"66386","street":"Sportplatzstraße 3","school_type_entity":"erweiterte Realschule","school_type":"erweiterte Realschule","phone_number":"+49 6894 9989820","old_slug":null,"official_id":"250021","name":"Erweiterte Realschule II St. Ingbert","lon":7.166076,"lat":49.286512,"homepage_url":null,"federal_state_code":"SL","fax_number":"+49 6894 9989829","email_address":null,"city":"St. Ingbert"},{"zip_code":"66629","street":"Schulstraße 43","school_type_entity":"erweiterte Realschule","school_type":"erweiterte Realschule","phone_number":"+49 6855 7992","old_slug":null,"official_id":"250011","name":"Erweiterte Realschule Freisen","lon":7.252041,"lat":49.547767,"homepage_url":null,"federal_state_code":"SL","fax_number":"+49 6855 996902","email_address":null,"city":"Freisen"},{"zip_code":"66606","street":"Willi-Graf-Straße 3","school_type_entity":"erweiterte Realschule","school_type":"erweiterte Realschule","phone_number":"+49 6851 93190","old_slug":null,"official_id":"150011","name":"Erweiterte Realschule St. Wendel","lon":7.153093,"lat":49.469108,"homepage_url":null,"federal_state_code":"SL","fax_number":"+49 6851 931933","email_address":null,"city":"St. Wendel"},{"zip_code":"66636","street":"Toni Lermen Straße 2","school_type_entity":"erweiterte Realschule","school_type":"erweiterte Realschule","phone_number":"+49 6853 9128","old_slug":null,"official_id":"150011","name":"Erweiterte Realschule Tholey","lon":7.025386,"lat":49.500473,"homepage_url":null,"federal_state_code":"SL","fax_number":"+49 6853 912850","email_address":null,"city":"Tholey-Theley"},{"zip_code":"66117","street":"Stengelstraße 31","school_type_entity":"Gymnasium","school_type":"Gymnasium","phone_number":"+49 681 926050","old_slug":null,"official_id":"010011","name":"Ludwigsgymnasium","lon":6.98352,"lat":49.233693,"homepage_url":null,"federal_state_code":"SL","fax_number":"+49 681 92605","email_address":null,"city":"Saarbrücken"},{"zip_code":"66123","street":"Neugrabenweg 66-90","school_type_entity":"Gymnasium","school_type":"Gymnasium","phone_number":"+49 681 936980","old_slug":"66123-gymnasium-am-rotenbuehl","official_id":"011011","name":"Gymnasium Am Rotenbühl","lon":7.010493,"lat":49.24088,"homepage_url":"http://www.g-a-r.de","federal_state_code":"SL","fax_number":"+49 681 9369840","email_address":"kraemer@g-a-r.de","city":"Saarbrücken"},{"zip_code":"66121","street":"Halbergstraße 112","school_type_entity":"Gymnasium","school_type":"Gymnasium","phone_number":"+49 681 99681","old_slug":"66121-deutsch-franzoesisches-gymnasium","official_id":"011021","name":"Deutsch-Französisches Gymnasium","lon":7.016476,"lat":49.230323,"homepage_url":"http://dfg-lfa.org/start/","federal_state_code":"SL","fax_number":"+49 681 99681","email_address":"information@dfg-lfa.com","city":"Saarbrücken"},{"zip_code":"66121","street":"Sachsenweg 3","school_type_entity":"Gymnasium","school_type":"Gymnasium","phone_number":"+49 681 66835","old_slug":"66121-willi-graf-realschule","official_id":"011042","name":"Willi-Graf-Gymnasium (privat)","lon":7.006891,"lat":49.234129,"homepage_url":"http://www.Willi-Graf-Schulen.de","federal_state_code":"SL","fax_number":"+49 681 66835","email_address":"willi-graf-rs@t-online.de","city":"Saarbrücken"},{"zip_code":"66119","street":"Spichererbergstraße 15","school_type_entity":"Gymnasium","school_type":"Gymnasium","phone_number":"+49 681 581884","old_slug":"66119-gymnasium-am-schloss","official_id":"012011","name":"Gymnasium Am Schloss","lon":6.992539,"lat":49.229249,"homepage_url":"http://www.gymnasium-am-schloss.de/index.htm","federal_state_code":"SL","fax_number":"+49 681 52084","email_address":"gymnasium-am-schloss@web.de","city":"Saarbrücken"},{"zip_code":"66117","street":"Hohenzollernstraße 59 A","school_type_entity":"Gymnasium","school_type":"Gymnasium","phone_number":"+49 681 51367","old_slug":null,"official_id":"012032","name":"Marienschule","lon":6.982593,"lat":49.235035,"homepage_url":null,"federal_state_code":"SL","fax_number":"+49 681 57033","email_address":null,"city":"Saarbrücken"},{"zip_code":"66111","street":"Landwehrplatz 3","school_type_entity":"Gymnasium","school_type":"Gymnasium","phone_number":"+49 681 37981","old_slug":"66111-otto-hahn-gymnasium","official_id":"013011","name":"Otto Hahn Gymnasium","lon":7.001044,"lat":49.234423,"homepage_url":"http://www.ohg-sb.de","federal_state_code":"SL","fax_number":"+49 681 37981","email_address":"ohgmain@aol.com","city":"Saarbrücken"},{"zip_code":"66113","street":"Rheinstraße 95","school_type_entity":"Gymnasium","school_type":"Gymnasium","phone_number":"+49 681 751610","old_slug":"66113-wirtschaftswissenschaftliches-gymnasium","official_id":"030011","name":"Wirtschaftswissenschaftliches Gymnasium","lon":6.958567,"lat":49.24736,"homepage_url":"http://www.wwgsk.de","federal_state_code":"SL","fax_number":"+49 681 754826","email_address":"wwgsk@web.de","city":"Saarbrücken"},{"zip_code":"66280","street":"Quierschieder Weg","school_type_entity":"Gymnasium","school_type":"Gymnasium","phone_number":"+49 6897 90810","old_slug":"66280-theodor-heuss-gymnasium","official_id":"012011","name":"Theodor-Heuss-Gymnasium Sulzbach","lon":7.0570952,"lat":49.3022447,"homepage_url":"http://www.thg-sulzbach.de","federal_state_code":"SL","fax_number":"+49 6897 908128","email_address":"fpfeffer@t-online.de","city":"Sulzbach"},{"zip_code":"66333","street":"Lortzingstraße 2","school_type_entity":"Gymnasium","school_type":"Gymnasium","phone_number":"+49 6898 50280","old_slug":"66333-marie-luise-kaschnitz-gymnasium","official_id":"011011","name":"Marie-Luise-Kaschnitz-Gymnasium","lon":6.866896,"lat":49.25575,"homepage_url":"http://www.mlk-vk.de","federal_state_code":"SL","fax_number":"+49 6898 502831","email_address":"mlkgym@freenet.de","city":"Völklingen"},{"zip_code":"66333","street":"Hohenzollernstraße 28","school_type_entity":"Gymnasium","school_type":"Gymnasium","phone_number":"+49 6898 91300","old_slug":null,"official_id":"011021","name":"Albert-Einstein-Gymnasium","lon":6.860604,"lat":49.253213,"homepage_url":null,"federal_state_code":"SL","fax_number":"+49 6898 16594","email_address":null,"city":"Völklingen"},{"zip_code":"66333","street":"Am Warndtgymnasium 1","school_type_entity":"Gymnasium","school_type":"Gymnasium","phone_number":"+49 6898 972990","old_slug":"66333-warndtgymnasium","official_id":"011031","name":"Warndt-Gymnasium","lon":6.823782,"lat":49.230094,"homepage_url":"http://www.warndtgymnasium.de","federal_state_code":"SL","fax_number":"+49 6898 7015","email_address":"ap@wgvk.de","city":"Völklingen"},{"zip_code":"66663","street":"Goethestraße 16 A","school_type_entity":"Gymnasium","school_type":"Gymnasium","phone_number":"+49 6861 939920","old_slug":null,"official_id":"011011","name":"Peter-Wust-Gymnasium","lon":6.653358,"lat":49.444387,"homepage_url":null,"federal_state_code":"SL","fax_number":"+49 6861 9399220","email_address":null,"city":"Merzig"},{"zip_code":"66663","street":"Waldstraße 48","school_type_entity":"Gymnasium","school_type":"Gymnasium","phone_number":"+49 6861 939680","old_slug":null,"official_id":"011021","name":"Gymnasium Am Stefansberg","lon":6.637217,"lat":49.451473,"homepage_url":null,"federal_state_code":"SL","fax_number":"+49 6861 9396829","email_address":null,"city":"Merzig"},{"zip_code":"66687","street":"Am Kaisergarten 1","school_type_entity":"Gymnasium","school_type":"Gymnasium","phone_number":"+49 6871 90260","old_slug":"66687-hochwald-gymnasium-wadern","official_id":"011011","name":"Hochwaldgymnasium","lon":6.900792,"lat":49.54411,"homepage_url":"http://www.hochwald-gymnasium.de","federal_state_code":"SL","fax_number":"+49 6871 902699","email_address":"hwg@hwg-wadern.de","city":"Wadern"},{"zip_code":"66557","street":"Schwarzer Weg","school_type_entity":"Gymnasium","school_type":"Gymnasium","phone_number":"+49 6825 93080","old_slug":"66557-illtal-gymnasium","official_id":"012011","name":"Illtal-Gymnasium","lon":7.0418913,"lat":49.367825,"homepage_url":"http://www.illtal-gymnasium.de","federal_state_code":"SL","fax_number":"+49 6825 930820","email_address":"illtal-gymnasium@t-online.de","city":"Illingen"},{"zip_code":"66538","street":"Am Mädchenrealgymnasium","school_type_entity":"Gymnasium","school_type":"Gymnasium","phone_number":"+49 6821 90980","old_slug":null,"official_id":"012011","name":"Gymnasium Am Steinwald","lon":7.193982,"lat":49.343597,"homepage_url":null,"federal_state_code":"SL","fax_number":"+49 6821 909833","email_address":null,"city":"Neunkirchen"},{"zip_code":"66538","street":"Alb. Schweitzer-Straße 23","school_type_entity":"Gymnasium","school_type":"Gymnasium","phone_number":"+49 6821 98150","old_slug":null,"official_id":"012021","name":"Gymnasium Am Krebsberg","lon":6.808628,"lat":49.228964,"homepage_url":null,"federal_state_code":"SL","fax_number":"+49 6821 981535","email_address":null,"city":"Neunkirchen/Saar"},{"zip_code":"66564","street":"Seminarstraße 43","school_type_entity":"Gymnasium","school_type":"Gymnasium","phone_number":"+49 6824 930830","old_slug":null,"official_id":"012011","name":"Gymnasium","lon":7.161011,"lat":49.400497,"homepage_url":null,"federal_state_code":"SL","fax_number":"+49 6824 930833","email_address":null,"city":"Ottweiler"},{"zip_code":"66763","street":"Karcherstraße 2","school_type_entity":"Gymnasium","school_type":"Gymnasium","phone_number":"+49 6831 976547","old_slug":"66763-albert-schweitzer-gymnasium","official_id":"012011","name":"Albert-Schweitzer-Gymnasium","lon":6.728547,"lat":49.359087,"homepage_url":"http://www.asg-dillingen.de","federal_state_code":"SL","fax_number":"+49 6831 976089","email_address":"schulleitung@asgd.sls.sl.schule.de","city":"Dillingen"},{"zip_code":"66763","street":"Wallerfangerstraße 25","school_type_entity":"Gymnasium","school_type":"Gymnasium","phone_number":"+49 6831 769830","old_slug":null,"official_id":"032011","name":"Technisch-wissenschaftliches Gymnasium","lon":6.715338,"lat":49.345377,"homepage_url":null,"federal_state_code":"SL","fax_number":"+49 6831 7698322","email_address":null,"city":"Dillingen"},{"zip_code":"66822","street":"Straße der weißen Rose","school_type_entity":"Gymnasium","school_type":"Gymnasium","phone_number":"+49 6881 53033","old_slug":null,"official_id":"011011","name":"Geschwister-Scholl-Gymnasium","lon":6.897565,"lat":49.402934,"homepage_url":null,"federal_state_code":"SL","fax_number":"+49 6881 53035","email_address":null,"city":"Lebach"},{"zip_code":"66822","street":"Dillinger Straße 67","school_type_entity":"Gymnasium","school_type":"Gymnasium","phone_number":"+49 6881 53051","old_slug":null,"official_id":"013011","name":"Johannes-Kepler-Gymnasium","lon":6.895171,"lat":49.404791,"homepage_url":null,"federal_state_code":"SL","fax_number":"+49 6881 537030","email_address":null,"city":"Lebach"},{"zip_code":"66740","street":"Holtzendorfferstraße 1","school_type_entity":"Gymnasium","school_type":"Gymnasium","phone_number":"+49 6831 42985","old_slug":null,"official_id":"010011","name":"Gymnasium Am Stadtgarten","lon":6.745943,"lat":49.319075,"homepage_url":null,"federal_state_code":"SL","fax_number":"+49 6831 121412","email_address":null,"city":"Saarlouis"},{"zip_code":"66740","street":"Praelat-Subtil Ring 2","school_type_entity":"Gymnasium","school_type":"Gymnasium","phone_number":"+49 6831 2262","old_slug":null,"official_id":"011011","name":"Robert-Schuman-Gymnasium","lon":6.756259,"lat":49.314243,"homepage_url":null,"federal_state_code":"SL","fax_number":"+49 6831 121001","email_address":null,"city":"Saarlouis"},{"zip_code":"66740","street":"Pavillonstraße 24","school_type_entity":"Gymnasium","school_type":"Gymnasium","phone_number":"+49 6831 94590","old_slug":"66740-max-planck-gymnasium","official_id":"013011","name":"Max-Planck-Gymnasium","lon":6.751592,"lat":49.319031,"homepage_url":"http://www.mpg-saarlouis.de","federal_state_code":"SL","fax_number":"+49 6831 945930","email_address":"mpg@mpg-saarlouis.de","city":"Saarlouis"},{"zip_code":"66440","street":"Schlossbergstraße 42","school_type_entity":"Gymnasium","school_type":"Gymnasium","phone_number":"+49 6842 92320","old_slug":"66440-von-der-leyen-gymnasium","official_id":"011011","name":"Von der Leyen-Gymnasium","lon":7.25444,"lat":49.24222,"homepage_url":"http://www.handshake.de/user/vdleyen/","federal_state_code":"SL","fax_number":"+49 6842 923232","email_address":"g.berg@hs-hom.handshake.de","city":"Blieskastel"},{"zip_code":"66424","street":"Kardinal Wendel Straße12","school_type_entity":"Gymnasium","school_type":"Gymnasium","phone_number":"+49 6841 934770","old_slug":null,"official_id":"010012","name":"Gymnasium Johanneum (privat)","lon":7.326591,"lat":49.302994,"homepage_url":null,"federal_state_code":"SL","fax_number":"+49 6841 61523","email_address":null,"city":"Homburg"},{"zip_code":"66424","street":"Hiltebrandtstr. 1","school_type_entity":"Gymnasium","school_type":"Gymnasium","phone_number":"+49 6841 9348360","old_slug":null,"official_id":"011011","name":"Mannlich-Gymnasium","lon":7.334777,"lat":49.320388,"homepage_url":null,"federal_state_code":"SL","fax_number":"+49 6841 9348372","email_address":null,"city":"Homburg"},{"zip_code":"66424","street":"Untere Allee 75","school_type_entity":"Gymnasium","school_type":"Gymnasium","phone_number":"+49 6841 92310","old_slug":"66424-saarpfalz-gymnasium","official_id":"012021","name":"Saarpfalz-Gymnasium","lon":7.34794,"lat":49.316164,"homepage_url":"http://www.saarpfalz-gymnasium.de","federal_state_code":"SL","fax_number":"+49 6841 923122","email_address":"spg@spg-hom.de","city":"Homburg"},{"zip_code":"66386","street":"Neue Messstraße 24","school_type_entity":"Gymnasium","school_type":"Gymnasium","phone_number":"+49 6894 2138","old_slug":null,"official_id":"011022","name":"Alb.Magnus-Gymnasium (privat)","lon":7.117051,"lat":49.277219,"homepage_url":null,"federal_state_code":"SL","fax_number":"+49 6894 383839","email_address":null,"city":"St. Ingbert"},{"zip_code":"66386","street":"Im Schmelzerwald 51a","school_type_entity":"Gymnasium","school_type":"Gymnasium","phone_number":"+49 6894 96390","old_slug":"66386-leibniz-gymnasium","official_id":"012011","name":"Leibniz-Gymnasium","lon":7.101885,"lat":49.26843,"homepage_url":"http://www.leibniz-igb.de/index.html","federal_state_code":"SL","fax_number":"+49 6894 963918","email_address":"mail@leibniz-igb.de","city":"St. Ingbert"},{"zip_code":"66606","street":"Schorlemer Straße 28","school_type_entity":"Gymnasium","school_type":"Gymnasium","phone_number":"+49 6851 93220","old_slug":null,"official_id":"010011","name":"Gymnasium-Wendalinum","lon":7.175955,"lat":49.463308,"homepage_url":null,"federal_state_code":"SL","fax_number":"+49 6851 932233","email_address":null,"city":"St. Wendel"},{"zip_code":"66606","street":"Missionshausstraße 50","school_type_entity":"Gymnasium","school_type":"Gymnasium","phone_number":"+49 6851 805300","old_slug":null,"official_id":"010022","name":"Arnold-Janssen-Gymnasium (privat)","lon":7.191686,"lat":49.46417,"homepage_url":null,"federal_state_code":"SL","fax_number":"+49 6851 805375","email_address":null,"city":"St. Wendel"},{"zip_code":"66606","street":"Missionshausstraße 14","school_type_entity":"Gymnasium","school_type":"Gymnasium","phone_number":"+49 6851 93230","old_slug":null,"official_id":"011011","name":"Cusanus-Gymnasium","lon":7.180892,"lat":49.463529,"homepage_url":null,"federal_state_code":"SL","fax_number":"+49 6851 932333","email_address":null,"city":"St. Wendel"},{"zip_code":"66113","street":"Ziegelstraße 17","school_type_entity":"Gesamtschule","school_type":"Gesamtschule","phone_number":"+49 681 9471970","old_slug":null,"official_id":"005041","name":"Gesamtschule Saarbrücken-Ludwigspark","lon":6.985793,"lat":49.246059,"homepage_url":null,"federal_state_code":"SL","fax_number":"+49 681 47652","email_address":null,"city":"Saarbrücken"},{"zip_code":"66299","street":"Im Grühlingswald 19","school_type_entity":"Gesamtschule","school_type":"Gesamtschule","phone_number":"+49 6897 9699010","old_slug":null,"official_id":"005052","name":"Montessori-Zentrum Saar, Gemeinschafts-/Gesamtschule","lon":7.091024,"lat":49.325894,"homepage_url":null,"federal_state_code":"SL","fax_number":"+49 6897 9699011","email_address":null,"city":"Friedrichsthal"},{"zip_code":"66125","street":"An der Mühlenschule 3","school_type_entity":"Gesamtschule","school_type":"Gesamtschule","phone_number":"+49 6897 97460","old_slug":"66125-gesamtschule-sulzbachtal","official_id":"305031","name":"Gesamtschule Sulzbachtal","lon":7.031932,"lat":49.275708,"homepage_url":"http://www.gesamtschule-sulzbachtal.de","federal_state_code":"SL","fax_number":"+49 6897 74069","email_address":"schulleitung@gesamtschule-sulzbachtal.de","city":"Saarbrücken"},{"zip_code":"66113","street":"Weissenburger Straße 23","school_type_entity":"Gesamtschule","school_type":"Gesamtschule","phone_number":"+49 681 971460","old_slug":null,"official_id":"405011","name":"Gesamtschule Saarbrücken-Rastbachtal","lon":6.95873,"lat":49.246661,"homepage_url":null,"federal_state_code":"SL","fax_number":"+49 681 73692","email_address":null,"city":"Saarbrücken"},{"zip_code":"66117","street":"Am Hagen 30","school_type_entity":"Gesamtschule","school_type":"Gesamtschule","phone_number":"+49 681 926200","old_slug":null,"official_id":"405021","name":"Gesamtschule Bellevue","lon":6.976698,"lat":49.226823,"homepage_url":null,"federal_state_code":"SL","fax_number":"+49 681 9262017","email_address":null,"city":"Saarbrücken"},{"zip_code":"66292","street":"Lindenstrasse 9","school_type_entity":"Gesamtschule","school_type":"Gesamtschule","phone_number":"+49 6806 99210","old_slug":null,"official_id":"205011","name":"Gesamtschule Riegelsberg","lon":6.939944,"lat":49.306609,"homepage_url":null,"federal_state_code":"SL","fax_number":"+49 6806 992140","email_address":null,"city":"Riegelsberg"},{"zip_code":"66333","street":"Hohlstraße 35","school_type_entity":"Gesamtschule","school_type":"Gesamtschule","phone_number":"+49 6898 945810","old_slug":"66333-graf-ludwig-gesamtschule","official_id":"105011","name":"Graf-Ludwig-Gemeinschaftsschule im Warndt (Gesamtschule)","lon":6.799969,"lat":49.223854,"homepage_url":"http://www.shuttle.schule.de/vk/ludwig","federal_state_code":"SL","fax_number":"+49 6898 9458129","email_address":"postmaster@ludwig.vk.sl.schule.de","city":"Völklingen-Ludweiler"},{"zip_code":"66679","street":"Weiskirchener Straße 18","school_type_entity":"Gesamtschule","school_type":"Gesamtschule","phone_number":"+49 6872 921960","old_slug":null,"official_id":"205011","name":"Peter-Dewes-Gesamtschule","lon":6.746234,"lat":49.509511,"homepage_url":null,"federal_state_code":"SL","fax_number":"+49 6872 9219630","email_address":null,"city":"Losheim"},{"zip_code":"66693","street":"Saarbrücker Straße","school_type_entity":"Gesamtschule","school_type":"Gesamtschule","phone_number":"+49 6865 91110","old_slug":"66693-gesamtschule-orscholz","official_id":"105011","name":"Gesamtschule Mettlach-Orscholz","lon":6.5852876,"lat":49.4940158,"homepage_url":"http://www.gesamtschule-orscholz.de","federal_state_code":"SL","fax_number":"+49 6865 9111100","email_address":"kschwarz.orscholz@t-online.de","city":"Mettlach-Orscholz"},{"zip_code":"66706","street":"Auf dem Sabel 2","school_type_entity":"Gesamtschule","school_type":"Gesamtschule","phone_number":"+49 6867 9111200","old_slug":"66706-ers-perl","official_id":"005011","name":"Deutsch-Luxemburgisches Schengen-Lyceum Perl","lon":6.386255,"lat":49.478519,"homepage_url":"http://www.kas-perl.de/","federal_state_code":"SL","fax_number":"+49 6867 9111220","email_address":"ers-perl@t-online.de","city":"Perl"},{"zip_code":"66538","street":"Haspelstrasse","school_type_entity":"Gesamtschule","school_type":"Gesamtschule","phone_number":"+49 6821 98240","old_slug":null,"official_id":"105011","name":"Gesamtschule Neunkirchen","lon":7.185383,"lat":49.340686,"homepage_url":null,"federal_state_code":"SL","fax_number":"+49 6821 982428","email_address":null,"city":"Neunkirchen"},{"zip_code":"66578","street":"Comeniusstraße","school_type_entity":"Gesamtschule","school_type":"Gesamtschule","phone_number":"+49 6821 964840","old_slug":null,"official_id":"205011","name":"Gesamtschule","lon":7.127465,"lat":49.366598,"homepage_url":null,"federal_state_code":"SL","fax_number":"+49 6821 9648428","email_address":null,"city":"Schiffweiler"},{"zip_code":"66763","street":"Industriestraße 40","school_type_entity":"Gesamtschule","school_type":"Gesamtschule","phone_number":"+49 6831 97860","old_slug":null,"official_id":"204011","name":"Integrierte Gesamtschule (Sophie-Scholl-Schule)","lon":6.717178,"lat":49.348111,"homepage_url":null,"federal_state_code":"SL","fax_number":"+49 6831 978630","email_address":null,"city":"Dillingen"},{"zip_code":"66787","street":"Weberstrasse","school_type_entity":"Gesamtschule","school_type":"Gesamtschule","phone_number":"+49 6834 99415","old_slug":null,"official_id":"305011","name":"Gesamtschule  - Bisttalschule Wadgassen","lon":6.816505,"lat":49.265133,"homepage_url":null,"federal_state_code":"SL","fax_number":"+49 6834 99416","email_address":null,"city":"Wadgassen"},{"zip_code":"66450","street":"Eichendorffweg 1","school_type_entity":"Gesamtschule","school_type":"Gesamtschule","phone_number":"+49 6826 93290","old_slug":null,"official_id":"105011","name":"Gesamtschule \"Galileo-Schule\"","lon":7.253793,"lat":49.352201,"homepage_url":null,"federal_state_code":"SL","fax_number":"+49 6826 932929","email_address":null,"city":"Bexbach"},{"zip_code":"66453","street":"Schulzentrum","school_type_entity":"Gesamtschule","school_type":"Gesamtschule","phone_number":"+49 6843 9007","old_slug":null,"official_id":"205011","name":"Gesamtschule","lon":7.2,"lat":49.13333,"homepage_url":null,"federal_state_code":"SL","fax_number":"+49 6843 9007","email_address":null,"city":"Gersheim"},{"zip_code":"66646","street":"Marienstrasse 21","school_type_entity":"Gesamtschule","school_type":"Gesamtschule","phone_number":"+49 6853 91060","old_slug":null,"official_id":"105011","name":"Gesamtschule Marpingen","lon":7.055691,"lat":49.450562,"homepage_url":null,"federal_state_code":"SL","fax_number":"+49 6853 910611","email_address":null,"city":"Marpingen"},{"zip_code":"66625","street":"Trierer Straße 23","school_type_entity":"Gesamtschule","school_type":"Gesamtschule","phone_number":"+49 6852 90250","old_slug":null,"official_id":"205011","name":"Gesamtschule","lon":7.101035,"lat":49.580851,"homepage_url":null,"federal_state_code":"SL","fax_number":"+49 6852 902511","email_address":null,"city":"Nohfelden-Türkismühle"},{"zip_code":"66126","street":"Schulstraße 11","school_type_entity":"Waldorfschule","school_type":"freie Waldorfschule","phone_number":"+49 6898 986970","old_slug":null,"official_id":"006012","name":"Freie Waldorfschule","lon":7.109389,"lat":49.204294,"homepage_url":null,"federal_state_code":"SL","fax_number":"+49 6898 9869749","email_address":null,"city":"Saarbrücken-Altenkessel"},{"zip_code":"66299","street":"Neunkircher Straße 70","school_type_entity":"Waldorfschule","school_type":"freie Waldorfschule","phone_number":"+49 6897 840000","old_slug":"66299-johannes-schule","official_id":"006012","name":"Waldorfschule für Lern- und Erziehungshilfe","lon":7.104007,"lat":49.335082,"homepage_url":"http://www.johannes-schule.de","federal_state_code":"SL","fax_number":"+49 6897 843913","email_address":"info@johannes-schule.de","city":"Friedrichsthal-Bildstock"},{"zip_code":"66450","street":"Parkstraße","school_type_entity":"Waldorfschule","school_type":"freie Waldorfschule","phone_number":"+49 6826 3260","old_slug":"66450-freie-waldorfschule-saarpfalz","official_id":"006012","name":"Freie Waldorfschule","lon":7.2561741,"lat":49.3443218,"homepage_url":"http://www.waldorfschule-bexbach.de","federal_state_code":"SL","fax_number":"+49 6826 4561","email_address":"info@waldorfschule-bexbach.de","city":"Bexbach"},{"zip_code":"66625","street":"Schoosbergstraße 11","school_type_entity":"Waldorfschule","school_type":"freie Waldorfschule","phone_number":"+49 6852 82599","old_slug":null,"official_id":"006012","name":"Freie Waldorfschule Saar-Hunsrück","lon":7.124336,"lat":49.561412,"homepage_url":null,"federal_state_code":"SL","fax_number":"+49 6852 802179","email_address":null,"city":"Nohfelden-Walhausen"},{"zip_code":"66121","street":"Sachsenweg 8","school_type_entity":"erweiterte Realschule Abendform","school_type":"erweiterte Realschule Abendform","phone_number":"+49 681 635032","old_slug":null,"official_id":"354011","name":"Erweiterte Abendrealschule","lon":7.007854,"lat":49.233296,"homepage_url":null,"federal_state_code":"SL","fax_number":"+49 681 61598","email_address":null,"city":"Saarbrücken"},{"zip_code":"66763","street":"Industriestraße 29","school_type_entity":"erweiterte Realschule Abendform","school_type":"erweiterte Realschule Abendform","phone_number":"+49 6831 9869600","old_slug":null,"official_id":"254011","name":"Erweiterte Realschule in Abendform","lon":6.716099,"lat":49.350422,"homepage_url":null,"federal_state_code":"SL","fax_number":"+49 6831 9869601","email_address":null,"city":"Dillingen"},{"zip_code":"66299","street":"Im Grühlingswald 19","school_type_entity":"Gemeinschaftsschule","school_type":"Gemeinschaftsschule","phone_number":"+49 6897 9699010","old_slug":null,"official_id":"6052","name":"Montessori-Zentrum Saar, Gemeinschafts-/Gesamtschule","lon":7.091024,"lat":49.325894,"homepage_url":null,"federal_state_code":"SL","fax_number":"+49 6897 9699011","email_address":null,"city":"Friedrichsthal"},{"zip_code":"66113","street":"Ziegelstraße 17","school_type_entity":"Gemeinschaftsschule","school_type":"Gemeinschaftsschule","phone_number":"+49 681 9471970","old_slug":null,"official_id":"60011","name":"Gemeinschaftsschule","lon":6.985793,"lat":49.246059,"homepage_url":null,"federal_state_code":"SL","fax_number":"+49 681 47652","email_address":null,"city":"Saarbrücken"},{"zip_code":"66125","street":"An der Mühlenschule 3","school_type_entity":"Gemeinschaftsschule","school_type":"Gemeinschaftsschule","phone_number":"+49 6897 97460","old_slug":"66125-gesamtschule-sulzbachtal","official_id":"60021","name":"Gemeinschaftsschule","lon":7.031932,"lat":49.275708,"homepage_url":"http://www.gesamtschule-sulzbachtal.de","federal_state_code":"SL","fax_number":"+49 6897 74069","email_address":"schulleitung@gesamtschule-sulzbachtal.de","city":"Saarbrücken"},{"zip_code":"66121","street":"Sachsenweg 8","school_type_entity":"Gemeinschaftsschule","school_type":"Gemeinschaftsschule","phone_number":"+49 681 635032","old_slug":null,"official_id":"60031","name":"Gemeinschaftsschule Bruchwiese","lon":7.007854,"lat":49.233296,"homepage_url":null,"federal_state_code":"SL","fax_number":"+49 681 61598","email_address":null,"city":"Saarbrücken"},{"zip_code":"66127","street":"Hauptstraße 53","school_type_entity":"Gemeinschaftsschule","school_type":"Gemeinschaftsschule","phone_number":"+49 6898 37558","old_slug":"66127-erweiterte-realschule-saarbruecken-klarenthal","official_id":"60041","name":"Gemeinschaftsschule Klarenthal","lon":6.931615,"lat":49.23677,"homepage_url":"http://www.ers-klarenthal.de","federal_state_code":"SL","fax_number":"+49 6898 935899","email_address":"ers-klarenthal@saarnet.de","city":"Saarbrücken"},{"zip_code":"66113","street":"Weissenburger Straße 23","school_type_entity":"Gemeinschaftsschule","school_type":"Gemeinschaftsschule","phone_number":"+49 681 971460","old_slug":null,"official_id":"60051","name":"Gemeinschaftsschule","lon":6.95873,"lat":49.246661,"homepage_url":null,"federal_state_code":"SL","fax_number":"+49 681 73692","email_address":null,"city":"Saarbrücken"},{"zip_code":"66117","street":"Am Hagen 30","school_type_entity":"Gemeinschaftsschule","school_type":"Gemeinschaftsschule","phone_number":"+49 681 926200","old_slug":null,"official_id":"60061","name":"Gemeinschaftsschule","lon":6.976698,"lat":49.226823,"homepage_url":null,"federal_state_code":"SL","fax_number":"+49 681 9262017","email_address":null,"city":"Saarbrücken"},{"zip_code":"66130","street":"Saargemünder Straße 157","school_type_entity":"Gemeinschaftsschule","school_type":"Gemeinschaftsschule","phone_number":"+49 681 8739715","old_slug":null,"official_id":"60071","name":"Gemeinschaftsschule Güdingen","lon":7.027992,"lat":49.200915,"homepage_url":null,"federal_state_code":"SL","fax_number":"+49 681 8739990","email_address":null,"city":"Saarbrücken"},{"zip_code":"66265","street":"Schillerstraße 65","school_type_entity":"Gemeinschaftsschule","school_type":"Gemeinschaftsschule","phone_number":"+49 6806 6308","old_slug":null,"official_id":"260011","name":"Gemeinschaftsschule Heusweiler","lon":6.923151,"lat":49.333335,"homepage_url":null,"federal_state_code":"SL","fax_number":"+49 6806 6634","email_address":null,"city":"Heusweiler"},{"zip_code":"66271","street":"Wintringer Straße 78","school_type_entity":"Gemeinschaftsschule","school_type":"Gemeinschaftsschule","phone_number":"+49 6805 1445","old_slug":null,"official_id":"460011","name":"Gemeinschaftsschule Kleinblittersdorf","lon":7.041739,"lat":49.163134,"homepage_url":null,"federal_state_code":"SL","fax_number":"+49 6805 8427","email_address":null,"city":"Kleinblittersdorf"},{"zip_code":"66346","street":"Pickardstraße 33","school_type_entity":"Gemeinschaftsschule","school_type":"Gemeinschaftsschule","phone_number":"+49 6898 64421","old_slug":null,"official_id":"160011","name":"Gemeinschaftsschule Püttlingen","lon":6.886432,"lat":49.287387,"homepage_url":null,"federal_state_code":"SL","fax_number":"+49 6898 64431","email_address":null,"city":"Püttlingen"},{"zip_code":"66287","street":"Schulzentrum Taubenfeld","school_type_entity":"Gemeinschaftsschule","school_type":"Gemeinschaftsschule","phone_number":"+49 6897 62212","old_slug":null,"official_id":"260011","name":"Gemeinschaftsschule","lon":7.03333,"lat":49.31667,"homepage_url":null,"federal_state_code":"SL","fax_number":"+49 6897 63478","email_address":null,"city":"Quierschied"},{"zip_code":"66292","street":"Lindenstrasse 9","school_type_entity":"Gemeinschaftsschule","school_type":"Gemeinschaftsschule","phone_number":"+49 6806 99210","old_slug":null,"official_id":"260011","name":"Gemeinschaftsschule","lon":6.939944,"lat":49.306609,"homepage_url":null,"federal_state_code":"SL","fax_number":"+49 6806 992140","email_address":null,"city":"Riegelsberg"},{"zip_code":"66280","street":"Parkstraße 10","school_type_entity":"Gemeinschaftsschule","school_type":"Gemeinschaftsschule","phone_number":"+49 6897 952095","old_slug":"66280-erweiterte-realschule-am-vopeliuspark-sulzbach","official_id":"260011","name":"Gemeinschaftsschule","lon":7.060334,"lat":49.303969,"homepage_url":"http://ers-sulzbach.homepage.t-online.de","federal_state_code":"SL","fax_number":"+49 6897 952095","email_address":"roswitha.bachinger@gbs-schulen.de","city":"Sulzbach"},{"zip_code":"66333","street":"Hohlstraße 35","school_type_entity":"Gemeinschaftsschule","school_type":"Gemeinschaftsschule","phone_number":"+49 6898 945810","old_slug":"66333-graf-ludwig-gesamtschule","official_id":"160011","name":"Graf-Ludwig-Gemeinschaftsschule im Warndt","lon":6.799969,"lat":49.223854,"homepage_url":"http://www.shuttle.schule.de/vk/ludwig","federal_state_code":"SL","fax_number":"+49 6898 9458129","email_address":"postmaster@ludwig.vk.sl.schule.de","city":"Völklingen-Ludweiler"},{"zip_code":"66333","street":"Heinestraße 70","school_type_entity":"Gemeinschaftsschule","school_type":"Gemeinschaftsschule","phone_number":"+49 6898 9149730","old_slug":null,"official_id":"160021","name":"Gemeinschaftsschule Am Sonnenhügel","lon":6.867823,"lat":49.257411,"homepage_url":null,"federal_state_code":"SL","fax_number":"+49 6898 296911","email_address":null,"city":"Völklingen"},{"zip_code":"66333","street":"Heinestraße 70","school_type_entity":"Gemeinschaftsschule","school_type":"Gemeinschaftsschule","phone_number":"+49 6898 9149730","old_slug":null,"official_id":"160031","name":"Gemeinschaftsschule Hermann Neuberger Völklingen","lon":6.867823,"lat":49.257411,"homepage_url":null,"federal_state_code":"SL","fax_number":"+49 6898 296911","email_address":null,"city":"Völklingen"},{"zip_code":"66701","street":"Hindenburgstraße 19","school_type_entity":"Gemeinschaftsschule","school_type":"Gemeinschaftsschule","phone_number":"+49 6835 608190","old_slug":"66701-ers-beckingen","official_id":"260011","name":"Friedrich-Bernhard-Karcher- Schule Beckingen -Gemeinschaftsschule","lon":6.704213,"lat":49.388015,"homepage_url":"http://www.ers-beckingen.de","federal_state_code":"SL","fax_number":"+49 6835 608199","email_address":"ers@stock-xchange.de","city":"Beckingen"},{"zip_code":"66679","street":"Weiskirchener Straße 18","school_type_entity":"Gemeinschaftsschule","school_type":"Gemeinschaftsschule","phone_number":"+49 6872 921960","old_slug":null,"official_id":"260011","name":"Gemeinschaftsschule","lon":6.746234,"lat":49.509511,"homepage_url":null,"federal_state_code":"SL","fax_number":"+49 6872 9219630","email_address":null,"city":"Losheim"},{"zip_code":"66663","street":"Von-Boch-Straße 75","school_type_entity":"Gemeinschaftsschule","school_type":"Gemeinschaftsschule","phone_number":"+49 6861 770770","old_slug":null,"official_id":"160011","name":"Gemeinschaftsschule Merzig","lon":6.63556,"lat":49.436392,"homepage_url":null,"federal_state_code":"SL","fax_number":"+49 6861 7707729","email_address":null,"city":"Merzig"},{"zip_code":"66693","street":"Saarbrücker Straße","school_type_entity":"Gemeinschaftsschule","school_type":"Gemeinschaftsschule","phone_number":"+49 6865 91110","old_slug":"66693-gesamtschule-orscholz","official_id":"160011","name":"Gemeinschaftsschule Mettlach-Orscholz","lon":6.5852876,"lat":49.4940158,"homepage_url":"http://www.gesamtschule-orscholz.de","federal_state_code":"SL","fax_number":"+49 6865 9111100","email_address":"kschwarz.orscholz@t-online.de","city":"Mettlach-Orscholz"},{"zip_code":"66687","street":"Gartenfeldstraße 23","school_type_entity":"Gemeinschaftsschule","school_type":"Gemeinschaftsschule","phone_number":"+49 6871 923020","old_slug":null,"official_id":"260011","name":"Gemeinschaftsschule Wadern","lon":6.88757,"lat":49.539803,"homepage_url":null,"federal_state_code":"SL","fax_number":"+49 6871 9230230","email_address":null,"city":"Wadern"},{"zip_code":"66709","street":"Am Marktplatz 1","school_type_entity":"Gemeinschaftsschule","school_type":"Gemeinschaftsschule","phone_number":"+49 6876 345","old_slug":"66709-erweiterte-realschule-weiskirchen","official_id":"260011","name":"Eichenlaubschule - Gemeinschaftsschule","lon":6.817538,"lat":49.555815,"homepage_url":"http://www.ersweiskirchen.de/","federal_state_code":"SL","fax_number":"+49 6876 7540","email_address":"office@ersweiskirchen.de","city":"Weiskirchen"},{"zip_code":"66571","street":"Hellbergstraße 40A","school_type_entity":"Gemeinschaftsschule","school_type":"Gemeinschaftsschule","phone_number":"+49 6881 962127","old_slug":null,"official_id":"260011","name":"Gemeinschaftsschule Eppelborn","lon":6.959418,"lat":49.40423,"homepage_url":null,"federal_state_code":"SL","fax_number":"+49 6881 962129","email_address":null,"city":"Eppelborn"},{"zip_code":"66557","street":"Schwarzer Weg 2","school_type_entity":"Gemeinschaftsschule","school_type":"Gemeinschaftsschule","phone_number":"+49 6825 94200","old_slug":"66557-erweiterte-realschule-illingen","official_id":"260011","name":"Gemeinschaftsschule Illingen","lon":7.042521,"lat":49.367616,"homepage_url":"http://www.ersillingen.de","federal_state_code":"SL","fax_number":"+49 6825 942011","email_address":"webmaster@ersillingen.de","city":"Illingen"},{"zip_code":"66589","street":"Bildstockstr. 127","school_type_entity":"Gemeinschaftsschule","school_type":"Gemeinschaftsschule","phone_number":"+49 6825 42261","old_slug":null,"official_id":"260011","name":"Gemeinschaftsschule Merchweiler - Max von der Grün Schule","lon":7.077866,"lat":49.362267,"homepage_url":null,"federal_state_code":"SL","fax_number":"+49 6825 42262","email_address":null,"city":"Merchweiler"},{"zip_code":"66538","street":"Haspelstrasse","school_type_entity":"Gemeinschaftsschule","school_type":"Gemeinschaftsschule","phone_number":"+49 6821 98240","old_slug":null,"official_id":"160011","name":"Gemeinschaftsschule","lon":7.185383,"lat":49.340686,"homepage_url":null,"federal_state_code":"SL","fax_number":"+49 6821 982428","email_address":null,"city":"Neunkirchen"},{"zip_code":"66540","street":"Prälat-Schütz-Straße 15","school_type_entity":"Gemeinschaftsschule","school_type":"Gemeinschaftsschule","phone_number":"+49 6821 95040","old_slug":null,"official_id":"160012","name":"Maximilian-Kolbe-Schule Gemeinschaftsschule","lon":7.189038,"lat":49.366518,"homepage_url":null,"federal_state_code":"SL","fax_number":"+49 6821 950444","email_address":null,"city":"Neunkirchen-Wiebelskirchen"},{"zip_code":"66538","street":"Lutherstraße 2","school_type_entity":"Gemeinschaftsschule","school_type":"Gemeinschaftsschule","phone_number":"+49 6821 999710","old_slug":null,"official_id":"160021","name":"Gemeinschaftsschule","lon":7.176264,"lat":49.346785,"homepage_url":null,"federal_state_code":"SL","fax_number":"+49 6821 9997130","email_address":null,"city":"Neunkirchen"},{"zip_code":"66539","street":"Pestalozzistraße","school_type_entity":"Gemeinschaftsschule","school_type":"Gemeinschaftsschule","phone_number":"+49 6821 94090","old_slug":null,"official_id":"160031","name":"Gemeinschaftsschule Neunkirchen Wellesweiler","lon":7.226654,"lat":49.347308,"homepage_url":null,"federal_state_code":"SL","fax_number":"+49 6821 940940","email_address":null,"city":"Neunkirchen"},{"zip_code":"66564","street":"Seminarstraße 56","school_type_entity":"Gemeinschaftsschule","school_type":"Gemeinschaftsschule","phone_number":"+49 6824 5320","old_slug":null,"official_id":"260011","name":"bachem","lon":7.157514,"lat":49.401034,"homepage_url":null,"federal_state_code":"SL","fax_number":"+49 6824 4361","email_address":null,"city":"Ottweiler"},{"zip_code":"66578","street":"Comeniusstraße","school_type_entity":"Gemeinschaftsschule","school_type":"Gemeinschaftsschule","phone_number":"+49 6821 964840","old_slug":null,"official_id":"260011","name":"Gemeinschaftsschule","lon":7.127465,"lat":49.366598,"homepage_url":null,"federal_state_code":"SL","fax_number":"+49 6821 9648428","email_address":null,"city":"Schiffweiler"},{"zip_code":"66583","street":"Am Ring 39 a","school_type_entity":"Gemeinschaftsschule","school_type":"Gemeinschaftsschule","phone_number":"+49 6821 97000","old_slug":null,"official_id":"160011","name":"Gemeinschaftsschule Spiesen-Elversberg","lon":7.134318,"lat":49.319441,"homepage_url":null,"federal_state_code":"SL","fax_number":"+49 6821 970013","email_address":null,"city":"Spiesen-Elversberg"},{"zip_code":"66763","street":"Industriestraße 40","school_type_entity":"Gemeinschaftsschule","school_type":"Gemeinschaftsschule","phone_number":"+49 6831 97860","old_slug":null,"official_id":"260011","name":"Sophie-Scholl-Gemeinschaftsschule","lon":6.717178,"lat":49.348111,"homepage_url":null,"federal_state_code":"SL","fax_number":"+49 6831 978630","email_address":null,"city":"Dillingen"},{"zip_code":"66763","street":"Industriestraße 29","school_type_entity":"Gemeinschaftsschule","school_type":"Gemeinschaftsschule","phone_number":"+49 6831 9869600","old_slug":null,"official_id":"260021","name":"Schule am Römerkastell Dillingen - Gemeinschaftsschule","lon":6.716099,"lat":49.350422,"homepage_url":null,"federal_state_code":"SL","fax_number":"+49 6831 9869601","email_address":null,"city":"Dillingen"},{"zip_code":"66822","street":"Dillinger Straße 67","school_type_entity":"Gemeinschaftsschule","school_type":"Gemeinschaftsschule","phone_number":"+49 6881 91323","old_slug":null,"official_id":"160012","name":"Nikolaus-Gross-Schule (Gemeinschaftsschule)","lon":6.895171,"lat":49.404791,"homepage_url":null,"federal_state_code":"SL","fax_number":"+49 6881 91324","email_address":null,"city":"Lebach"},{"zip_code":"66822","street":"Mottener Straße 52","school_type_entity":"Gemeinschaftsschule","school_type":"Gemeinschaftsschule","phone_number":"+49 6881 3065","old_slug":null,"official_id":"260011","name":"Gemeinschaftsschule Lebach","lon":6.902927,"lat":49.414291,"homepage_url":null,"federal_state_code":"SL","fax_number":"+49 6881 3025","email_address":null,"city":"Lebach"},{"zip_code":"66809","street":"Josefstraße 11","school_type_entity":"Gemeinschaftsschule","school_type":"Gemeinschaftsschule","phone_number":"+49 6838 983706","old_slug":null,"official_id":"260011","name":"Gemeinschaftsschule Nalbach - Schule am Litermont","lon":6.783348,"lat":49.380294,"homepage_url":null,"federal_state_code":"SL","fax_number":"+49 6838 983708","email_address":null,"city":"Nalbach"},{"zip_code":"66780","street":"Beckinger Straße 38","school_type_entity":"Gemeinschaftsschule","school_type":"Gemeinschaftsschule","phone_number":"+49 6835 92240","old_slug":null,"official_id":"360011","name":"Gemeinschaftsschule Rehlingen-Siersburg","lon":6.682702,"lat":49.377395,"homepage_url":null,"federal_state_code":"SL","fax_number":"+49 6835 922414","email_address":null,"city":"Rehlingen-Siersburg"},{"zip_code":"66740","street":"St. Nazairer Allee 6","school_type_entity":"Gemeinschaftsschule","school_type":"Gemeinschaftsschule","phone_number":"+49 6831 41878","old_slug":null,"official_id":"160011","name":"Gemeinschaftsschule In den Fliesen Saarlouis I","lon":6.74288,"lat":49.32305,"homepage_url":null,"federal_state_code":"SL","fax_number":"+49 6831 41898","email_address":null,"city":"Saarlouis"},{"zip_code":"66740","street":"Kreuzbergstraße 87","school_type_entity":"Gemeinschaftsschule","school_type":"Gemeinschaftsschule","phone_number":"+49 6831 80056","old_slug":null,"official_id":"160021","name":"Gemeinschaftsschule Saarlouis II","lon":6.781331,"lat":49.331832,"homepage_url":null,"federal_state_code":"SL","fax_number":"+49 6831 80057","email_address":null,"city":"Saarlouis"},{"zip_code":"66793","street":"An der Waldwies 2-4","school_type_entity":"Gemeinschaftsschule","school_type":"Gemeinschaftsschule","phone_number":"+49 6838 90060","old_slug":null,"official_id":"160011","name":"Gemeinschaftsschule Saarwellingen","lon":6.83333,"lat":49.35,"homepage_url":null,"federal_state_code":"SL","fax_number":"+49 6838 900620","email_address":null,"city":"Saarwellingen"},{"zip_code":"66839","street":"Wilhelm-Busch-Straße 11","school_type_entity":"Gemeinschaftsschule","school_type":"Gemeinschaftsschule","phone_number":"+49 6887 2570","old_slug":null,"official_id":"260011","name":"Gemeinschaftsschule Schmelz","lon":6.848665,"lat":49.442066,"homepage_url":null,"federal_state_code":"SL","fax_number":"+49 6887 887126","email_address":null,"city":"Schmelz"},{"zip_code":"66773","street":"Weiherstraße 24a","school_type_entity":"Gemeinschaftsschule","school_type":"Gemeinschaftsschule","phone_number":"+49 6834 953953","old_slug":null,"official_id":"160011","name":"Gemeinschaftsschule Schwalbach","lon":6.814084,"lat":49.306365,"homepage_url":null,"federal_state_code":"SL","fax_number":"+49 6834 953954","email_address":null,"city":"Schwalbach"},{"zip_code":"66802","street":"Comeniusstraße 22","school_type_entity":"Gemeinschaftsschule","school_type":"Gemeinschaftsschule","phone_number":"+49 6836 2531","old_slug":null,"official_id":"360011","name":"Gemeinschaftsschule Überherrn","lon":6.70581,"lat":49.23264,"homepage_url":null,"federal_state_code":"SL","fax_number":"+49 6836 2031","email_address":null,"city":"Überherrn"},{"zip_code":"66787","street":"Weberstrasse","school_type_entity":"Gemeinschaftsschule","school_type":"Gemeinschaftsschule","phone_number":"+49 6834 99415","old_slug":null,"official_id":"360011","name":"Gemeinschaftsschule - Bisttalschule Wadgassen","lon":6.816505,"lat":49.265133,"homepage_url":null,"federal_state_code":"SL","fax_number":"+49 6834 99416","email_address":null,"city":"Wadgassen"},{"zip_code":"66798","street":"Bungertstraße 30","school_type_entity":"Gemeinschaftsschule","school_type":"Gemeinschaftsschule","phone_number":"+49 6831 964585","old_slug":null,"official_id":"360011","name":"Gemeinschaftsschule Wallerfangen","lon":6.713363,"lat":49.324331,"homepage_url":null,"federal_state_code":"SL","fax_number":"+49 6831 964594","email_address":null,"city":"Wallerfangen"},{"zip_code":"66450","street":"Eichendorffweg 1","school_type_entity":"Gemeinschaftsschule","school_type":"Gemeinschaftsschule","phone_number":"+49 6826 93290","old_slug":null,"official_id":"160011","name":"Gemeinschaftsschule \"Galileo-Schule\"","lon":7.253793,"lat":49.352201,"homepage_url":null,"federal_state_code":"SL","fax_number":"+49 6826 932929","email_address":null,"city":"Bexbach"},{"zip_code":"66440","street":"Schulzentrum","school_type_entity":"Gemeinschaftsschule","school_type":"Gemeinschaftsschule","phone_number":"+49 6842 923760","old_slug":null,"official_id":"260011","name":"Gemeinschaftsschule Blieskastel","lon":7.25444,"lat":49.24222,"homepage_url":null,"federal_state_code":"SL","fax_number":"+49 6842 923766","email_address":null,"city":"Blieskastel"},{"zip_code":"66453","street":"Schulzentrum","school_type_entity":"Gemeinschaftsschule","school_type":"Gemeinschaftsschule","phone_number":"+49 6843 9007","old_slug":null,"official_id":"260011","name":"Gemeinschaftsschule","lon":7.2,"lat":49.13333,"homepage_url":null,"federal_state_code":"SL","fax_number":"+49 6843 9007","email_address":null,"city":"Gersheim"},{"zip_code":"66424","street":"Virchowstraße 7","school_type_entity":"Gemeinschaftsschule","school_type":"Gemeinschaftsschule","phone_number":"+49 6841 92330","old_slug":null,"official_id":"160011","name":"Gemeinschaftsschule Homburg I","lon":7.338603,"lat":49.31497,"homepage_url":null,"federal_state_code":"SL","fax_number":"+49 6841 923326","email_address":null,"city":"Homburg"},{"zip_code":"66424","street":"Cranachstraße 7","school_type_entity":"Gemeinschaftsschule","school_type":"Gemeinschaftsschule","phone_number":"+49 6841 972930","old_slug":"66424-erweiterte-realschule-homburg-ii","official_id":"160021","name":"Gemeinschaftsschule Homburg II","lon":7.325007,"lat":49.333053,"homepage_url":"http://www.ers-homburg2.de","federal_state_code":"SL","fax_number":"+49 6841 9729321","email_address":"kblum@ers-homburg2.de","city":"Homburg"},{"zip_code":"66459","street":"Hauptstraße 75","school_type_entity":"Gemeinschaftsschule","school_type":"Gemeinschaftsschule","phone_number":"+49 6841 980040","old_slug":null,"official_id":"160011","name":"Gemeinschaftsschule Kirkel- Limbach","lon":12.802456,"lat":50.859967,"homepage_url":null,"federal_state_code":"SL","fax_number":"+49 6841 980429","email_address":null,"city":"Kirkel-Limbach"},{"zip_code":"66399","street":"Vichter Straße 1","school_type_entity":"Gemeinschaftsschule","school_type":"Gemeinschaftsschule","phone_number":"+49 6803 39000","old_slug":null,"official_id":"260011","name":"Gemeinschaftsschule Mandelbachtal","lon":7.155979,"lat":49.21823,"homepage_url":null,"federal_state_code":"SL","fax_number":"+49 6803 390020","email_address":null,"city":"Mandelbachtal"},{"zip_code":"66386","street":"Im Schmelzerwald 66","school_type_entity":"Gemeinschaftsschule","school_type":"Gemeinschaftsschule","phone_number":"+49 6894 96090","old_slug":"66386-schmelzerwaldschule-erweiterte-realschule-st-ingbert-i","official_id":"260011","name":"Gemeinschaftsschule I St. Ingbert","lon":7.104844,"lat":49.271203,"homepage_url":"http://www.ers-schmelzerwaldschule.de/","federal_state_code":"SL","fax_number":"+49 6894 960918","email_address":"schmelzerwaldschule@web.de","city":"St. Ingbert"},{"zip_code":"66386","street":"Sportplatzstraße 3","school_type_entity":"Gemeinschaftsschule","school_type":"Gemeinschaftsschule","phone_number":"+49 6894 9989820","old_slug":null,"official_id":"260021","name":"Gemeinschaftsschule St. Ingbert-Rohrbach","lon":7.166076,"lat":49.286512,"homepage_url":null,"federal_state_code":"SL","fax_number":"+49 6894 9989829","email_address":null,"city":"St. Ingbert"},{"zip_code":"66629","street":"Schulstraße 43","school_type_entity":"Gemeinschaftsschule","school_type":"Gemeinschaftsschule","phone_number":"+49 6855 7992","old_slug":null,"official_id":"260011","name":"Gemeinschaftsschule Freisen","lon":7.252041,"lat":49.547767,"homepage_url":null,"federal_state_code":"SL","fax_number":"+49 6855 996902","email_address":null,"city":"Freisen"},{"zip_code":"66646","street":"Marienstrasse 21","school_type_entity":"Gemeinschaftsschule","school_type":"Gemeinschaftsschule","phone_number":"+49 6853 91060","old_slug":null,"official_id":"160011","name":"Gemeinschaftsschule","lon":7.055691,"lat":49.450562,"homepage_url":null,"federal_state_code":"SL","fax_number":"+49 6853 910611","email_address":null,"city":"Marpingen"},{"zip_code":"66625","street":"Trierer Straße 23","school_type_entity":"Gemeinschaftsschule","school_type":"Gemeinschaftsschule","phone_number":"+49 6852 90250","old_slug":null,"official_id":"260011","name":"Gemeinschaftsschule","lon":7.101035,"lat":49.580851,"homepage_url":null,"federal_state_code":"SL","fax_number":"+49 6852 902511","email_address":null,"city":"Nohfelden-Türkismühle"},{"zip_code":"66606","street":"Willi-Graf-Straße 3","school_type_entity":"Gemeinschaftsschule","school_type":"Gemeinschaftsschule","phone_number":"+49 6851 93190","old_slug":null,"official_id":"160011","name":"Gemeinschaftsschule St. Wendel","lon":7.153093,"lat":49.469108,"homepage_url":null,"federal_state_code":"SL","fax_number":"+49 6851 931933","email_address":null,"city":"St. Wendel"},{"zip_code":"66636","street":"Toni Lermen Straße 2","school_type_entity":"Gemeinschaftsschule","school_type":"Gemeinschaftsschule","phone_number":"+49 6853 9128","old_slug":null,"official_id":"160011","name":"Gemeinschaftsschule Tholey","lon":7.025386,"lat":49.500473,"homepage_url":null,"federal_state_code":"SL","fax_number":"+49 6853 912850","email_address":null,"city":"Tholey-Theley"},{"zip_code":"66111","street":"Am Landwehrplatz 3","school_type_entity":"Abend-Gymnasium","school_type":"Abendgymnasium-Saarland-Kolleg","phone_number":"+49 681 3798118","old_slug":null,"official_id":"015011","name":"Abendgymnasium Saarbrücken","lon":7.001224,"lat":49.233761,"homepage_url":null,"federal_state_code":"SL","fax_number":null,"email_address":null,"city":"Saarbrücken"},{"zip_code":"66113","street":"Rheinstraße 95","school_type_entity":"Abend-Gymnasium","school_type":"Abendgymnasium-Saarland-Kolleg","phone_number":"+49 681 751610","old_slug":"66113-wirtschaftswissenschaftliches-gymnasium","official_id":"016011","name":"Saarland-Kolleg","lon":6.958567,"lat":49.24736,"homepage_url":"http://www.wwgsk.de","federal_state_code":"SL","fax_number":"+49 681 754826","email_address":"wwgsk@web.de","city":"Saarbrücken"}]