[{"zip_code":"28215","street":"Winterstr. 20","school_type_entity":"Grundschule","school_type":"Grundschule","phone_number":"+49 421 361","old_slug":null,"official_id":"002","name":"Schule an der Admiralstraße","lon":8.807364,"lat":53.090258,"homepage_url":null,"federal_state_code":"HB","fax_number":"+49 421 361","email_address":null,"city":"Bremen"},{"zip_code":"28207","street":"Alter Postweg 302","school_type_entity":"Grundschule","school_type":"Grundschule","phone_number":"+49 421 361","old_slug":null,"official_id":"003","name":"Schule am Alten Postweg","lon":8.868684,"lat":53.065585,"homepage_url":null,"federal_state_code":"HB","fax_number":"+49 421 361","email_address":null,"city":"Bremen"},{"zip_code":"28717","street":"Hindenburgstr. 33 A","school_type_entity":"Grundschule","school_type":"Grundschule","phone_number":"+49 421 361","old_slug":null,"official_id":"005","name":"Schule Am Mönchshof","lon":8.694167,"lat":53.168787,"homepage_url":null,"federal_state_code":"HB","fax_number":"+49 421 361","email_address":null,"city":"Bremen"},{"zip_code":"28211","street":"An der Gete 103","school_type_entity":"Grundschule","school_type":"Grundschule","phone_number":"+49 421 361","old_slug":null,"official_id":"006","name":"Schule An der Gete","lon":8.851296,"lat":53.079216,"homepage_url":null,"federal_state_code":"HB","fax_number":"+49 421 361","email_address":null,"city":"Bremen"},{"zip_code":"28277","street":"Alfred-Faust-Str. 34","school_type_entity":"Grundschule","school_type":"Grundschule","phone_number":"+49 421 361","old_slug":null,"official_id":"007","name":"Schule an der Alfred-Faust-Straße","lon":8.824,"lat":53.031878,"homepage_url":null,"federal_state_code":"HB","fax_number":"+49 421 361","email_address":null,"city":"Bremen"},{"zip_code":"28307","street":"Heisiusstr. 7","school_type_entity":"Grundschule","school_type":"Grundschule","phone_number":"+49 421 480548","old_slug":null,"official_id":"008","name":"Schule Arbergen","lon":8.918928,"lat":53.039492,"homepage_url":null,"federal_state_code":"HB","fax_number":"+49 421 4843429","email_address":null,"city":"Bremen"},{"zip_code":"28279","street":"Korbhauser Weg 1","school_type_entity":"Grundschule","school_type":"Grundschule","phone_number":"+49 421 361","old_slug":null,"official_id":"009","name":"Schule Arsten","lon":8.851997,"lat":53.030326,"homepage_url":null,"federal_state_code":"HB","fax_number":"+49 421 361","email_address":null,"city":"Bremen"},{"zip_code":"28239","street":"An der Fuchtelkuhle 15","school_type_entity":"Grundschule","school_type":"Grundschule","phone_number":"+49 421 361","old_slug":null,"official_id":"010","name":"Schule Auf den Heuen","lon":8.729204,"lat":53.13464,"homepage_url":null,"federal_state_code":"HB","fax_number":"+49 421 361","email_address":null,"city":"Bremen"},{"zip_code":"28325","street":"Andernacher Str. 6","school_type_entity":"Grundschule","school_type":"Grundschule","phone_number":"+49 421 361","old_slug":null,"official_id":"011","name":"Schule an der Andernacher Straße","lon":8.959222,"lat":53.068227,"homepage_url":null,"federal_state_code":"HB","fax_number":"+49 421 361","email_address":null,"city":"Bremen"},{"zip_code":"28215","street":"Augsburger Str. 175","school_type_entity":"Grundschule","school_type":"Grundschule","phone_number":"+49 421 361","old_slug":null,"official_id":"012","name":"Schule an der Augsburger Straße","lon":8.805143,"lat":53.09984,"homepage_url":null,"federal_state_code":"HB","fax_number":"+49 421 361","email_address":null,"city":"Bremen"},{"zip_code":"28757","street":"Ritterkamp 10","school_type_entity":"Grundschule","school_type":"Grundschule","phone_number":"+49 421 361","old_slug":null,"official_id":"013","name":"Schule Alt-Aumund","lon":8.62667,"lat":53.175708,"homepage_url":null,"federal_state_code":"HB","fax_number":"+49 421 361","email_address":null,"city":"Bremen"},{"zip_code":"28759","street":"Tidemanstr. 11","school_type_entity":"Grundschule","school_type":"Grundschule","phone_number":"+49 421 361","old_slug":null,"official_id":"014","name":"Schule Am Wasser","lon":8.631885,"lat":53.165596,"homepage_url":null,"federal_state_code":"HB","fax_number":"+49 421 361","email_address":null,"city":"Bremen"},{"zip_code":"28213","street":"Baumschulenweg 12","school_type_entity":"Grundschule","school_type":"Grundschule","phone_number":"+49 421 361","old_slug":null,"official_id":"015","name":"Schule am Baumschulenweg","lon":8.8463,"lat":53.093628,"homepage_url":null,"federal_state_code":"HB","fax_number":"+49 421 361","email_address":null,"city":"Bremen"},{"zip_code":"28309","street":"Parsevalstr. 2","school_type_entity":"Grundschule","school_type":"Grundschule","phone_number":"+49 421 361","old_slug":null,"official_id":"016","name":"Schule an der Parsevalstraße","lon":8.885231,"lat":53.067904,"homepage_url":null,"federal_state_code":"HB","fax_number":"+49 421 361","email_address":null,"city":"Bremen"},{"zip_code":"28755","street":"Auf dem Flintacker 51","school_type_entity":"Grundschule","school_type":"Grundschule","phone_number":"+49 421 361","old_slug":null,"official_id":"018","name":"Schule Borchshöhe","lon":8.636711,"lat":53.188218,"homepage_url":null,"federal_state_code":"HB","fax_number":"+49 421 361","email_address":null,"city":"Bremen"},{"zip_code":"28357","street":"Katrepeler Landstr. 1","school_type_entity":"Grundschule","school_type":"Grundschule","phone_number":"+49 421 361","old_slug":null,"official_id":"019","name":"Schule Borgfeld","lon":8.906411,"lat":53.125982,"homepage_url":null,"federal_state_code":"HB","fax_number":"+49 421 361","email_address":null,"city":"Bremen"},{"zip_code":"28309","street":"Brinkmannstr. 40","school_type_entity":"Grundschule","school_type":"Grundschule","phone_number":"+49 421 361","old_slug":null,"official_id":"020","name":"Schule an der Brinkmannstraße","lon":8.89435,"lat":53.045257,"homepage_url":null,"federal_state_code":"HB","fax_number":"+49 421 361","email_address":null,"city":"Bremen"},{"zip_code":"28215","street":"Am Weidedamm 20","school_type_entity":"Grundschule","school_type":"Grundschule","phone_number":"+49 421 361","old_slug":null,"official_id":"021","name":"Schule Am Weidedamm","lon":8.817049,"lat":53.093094,"homepage_url":null,"federal_state_code":"HB","fax_number":"+49 421 361","email_address":null,"city":"Bremen"},{"zip_code":"28203","street":"Contrescarpe 26","school_type_entity":"Grundschule","school_type":"Grundschule","phone_number":"+49 421 361","old_slug":null,"official_id":"023","name":"Bürgermeister-Smidt-Schule","lon":8.814529,"lat":53.075326,"homepage_url":null,"federal_state_code":"HB","fax_number":"+49 421 361","email_address":null,"city":"Bremen"},{"zip_code":"28201","street":"Buntentorsteinweg 245","school_type_entity":"Grundschule","school_type":"Grundschule","phone_number":"+49 421 361","old_slug":null,"official_id":"024","name":"Schule am Buntentorsteinweg","lon":8.810978,"lat":53.061088,"homepage_url":null,"federal_state_code":"HB","fax_number":"+49 421 361","email_address":null,"city":"Bremen"},{"zip_code":"28717","street":"Stargarder Str. 11","school_type_entity":"Grundschule","school_type":"Grundschule","phone_number":"+49 421 361","old_slug":null,"official_id":"025","name":"Schule Burgdamm","lon":8.709193,"lat":53.172409,"homepage_url":null,"federal_state_code":"HB","fax_number":"+49 421 361","email_address":null,"city":"Bremen"},{"zip_code":"28357","street":"Curiestr. 2 A","school_type_entity":"Grundschule","school_type":"Grundschule","phone_number":"+49 421 361","old_slug":null,"official_id":"028","name":"Marie-Curie-Schule","lon":8.895636,"lat":53.108302,"homepage_url":null,"federal_state_code":"HB","fax_number":"+49 421 361","email_address":null,"city":"Bremen"},{"zip_code":"28209","street":"Carl-Schurz-Str. 25","school_type_entity":"Grundschule","school_type":"Grundschule","phone_number":"+49 421 361","old_slug":null,"official_id":"029","name":"Schule an der Carl-Schurz-Straße","lon":8.840196,"lat":53.084826,"homepage_url":null,"federal_state_code":"HB","fax_number":"+49 421 361","email_address":null,"city":"Bremen"},{"zip_code":"28327","street":"Düsseldorfer Str. 2 A","school_type_entity":"Grundschule","school_type":"Grundschule","phone_number":"+49 421 361","old_slug":null,"official_id":"032","name":"Schule an der Düsseldorfer Straße","lon":8.932037,"lat":53.075203,"homepage_url":null,"federal_state_code":"HB","fax_number":"+49 421 361","email_address":null,"city":"Bremen"},{"zip_code":"28755","street":"Fährer Flur 15","school_type_entity":"Grundschule","school_type":"Grundschule","phone_number":"+49 421 361","old_slug":"28755-grundschule-faehrer-flur","official_id":"034","name":"Schule Fährer Flur","lon":8.611802,"lat":53.177978,"homepage_url":"http://034.schule.bremen.de/Design_1/index.htm","federal_state_code":"HB","fax_number":"+49 421 361","email_address":"thomas@jughardt.de","city":"Bremen"},{"zip_code":"28325","street":"Ellenerbrokweg 28","school_type_entity":"Grundschule","school_type":"Grundschule","phone_number":"+49 421 361","old_slug":"28325-schulen-am-ellenerbrokweg","official_id":"035","name":"Schule am Ellenerbrokweg","lon":8.94507,"lat":53.070437,"homepage_url":"http://www.ebro-bremen.de","federal_state_code":"HB","fax_number":"+49 421 361","email_address":"207@bildung.bremen.de","city":"Bremen"},{"zip_code":"28777","street":"Betonstr. 4","school_type_entity":"Grundschule","school_type":"Grundschule","phone_number":"+49 421 361","old_slug":null,"official_id":"036","name":"Schule Farge-Rekum","lon":8.525519,"lat":53.204547,"homepage_url":null,"federal_state_code":"HB","fax_number":"+49 421 361","email_address":null,"city":"Bremen"},{"zip_code":"28211","street":"Freiligrathstr. 11","school_type_entity":"Grundschule","school_type":"Grundschule","phone_number":"+49 421 361","old_slug":null,"official_id":"039","name":"Schule an der Freiligrathstraße","lon":8.862559,"lat":53.083607,"homepage_url":null,"federal_state_code":"HB","fax_number":"+49 421 496","email_address":null,"city":"Bremen"},{"zip_code":"28779","street":"Wigmodistr. 37","school_type_entity":"Grundschule","school_type":"Grundschule","phone_number":"+49 421 361","old_slug":null,"official_id":"040","name":"Schule an der Wigmodistraße","lon":8.574987,"lat":53.187202,"homepage_url":null,"federal_state_code":"HB","fax_number":"+49 421 361","email_address":null,"city":"Bremen"},{"zip_code":"28309","street":"Westerholzstr. 19 A","school_type_entity":"Grundschule","school_type":"Grundschule","phone_number":"+49 421 361","old_slug":null,"official_id":"043","name":"Schule an der Glockenstraße","lon":8.887824,"lat":53.055171,"homepage_url":null,"federal_state_code":"HB","fax_number":"+49 421 361","email_address":null,"city":"Bremen"},{"zip_code":"28719","street":"Grambker Heerstr. 121","school_type_entity":"Grundschule","school_type":"Grundschule","phone_number":"+49 421 361","old_slug":null,"official_id":"045","name":"Schule an der Grambker Heerstraße","lon":8.710816,"lat":53.150016,"homepage_url":null,"federal_state_code":"HB","fax_number":"+49 421 361","email_address":null,"city":"Bremen"},{"zip_code":"28259","street":"Brakkämpe 4","school_type_entity":"Grundschule","school_type":"Grundschule","phone_number":"+49 421 361","old_slug":null,"official_id":"048","name":"Schule Grolland","lon":8.764249,"lat":53.059602,"homepage_url":null,"federal_state_code":"HB","fax_number":"+49 421 361","email_address":null,"city":"Bremen"},{"zip_code":"28357","street":"Am Borgfelder Saatland 1-3","school_type_entity":"Grundschule","school_type":"Grundschule","phone_number":"+49 421 361","old_slug":null,"official_id":"049","name":"Schule Am Borgfelder Saatland","lon":8.896003,"lat":53.12726,"homepage_url":null,"federal_state_code":"HB","fax_number":"+49 421 361","email_address":null,"city":"Bremen"},{"zip_code":"28279","street":"Bunnsackerweg 4","school_type_entity":"Grundschule","school_type":"Grundschule","phone_number":"+49 421 361","old_slug":null,"official_id":"050","name":"Schule am Bunnsackerweg","lon":8.861112,"lat":53.044868,"homepage_url":null,"federal_state_code":"HB","fax_number":"+49 421 361","email_address":null,"city":"Bremen"},{"zip_code":"28237","street":"Halmerweg 71","school_type_entity":"Grundschule","school_type":"Grundschule","phone_number":"+49 421 361","old_slug":null,"official_id":"051","name":"Schule am Halmerweg","lon":8.763879,"lat":53.122323,"homepage_url":null,"federal_state_code":"HB","fax_number":"+49 421 361","email_address":null,"city":"Bremen"},{"zip_code":"28755","street":"Fährer Str. 4","school_type_entity":"Grundschule","school_type":"Grundschule","phone_number":"+49 421 361","old_slug":null,"official_id":"052","name":"Schule Hammersbeck","lon":8.613005,"lat":53.185676,"homepage_url":null,"federal_state_code":"HB","fax_number":"+49 421 361","email_address":null,"city":"Bremen"},{"zip_code":"28777","street":"Helgenstr. 10-12","school_type_entity":"Grundschule","school_type":"Grundschule","phone_number":"+49 421 361","old_slug":null,"official_id":"053","name":"Schule Rönnebeck","lon":8.552078,"lat":53.185953,"homepage_url":null,"federal_state_code":"HB","fax_number":"+49 421 361","email_address":null,"city":"Bremen"},{"zip_code":"28359","street":"Horner Heerstr. 17","school_type_entity":"Grundschule","school_type":"Grundschule","phone_number":"+49 421 361","old_slug":null,"official_id":"060","name":"Schule an der Horner Heerstraße","lon":8.870631,"lat":53.094617,"homepage_url":null,"federal_state_code":"HB","fax_number":"+49 421 361","email_address":null,"city":"Bremen"},{"zip_code":"28329","street":"In der Vahr 75","school_type_entity":"Grundschule","school_type":"Grundschule","phone_number":"+49 421 361","old_slug":"28329-schule-in-der-vahr","official_id":"062","name":"Schule In der Vahr","lon":8.877339,"lat":53.078252,"homepage_url":"http://www.schule.bremen.de/schulen/vahr/","federal_state_code":"HB","fax_number":"+49 421 361","email_address":"webmaster_vahr@yahoo.de","city":"Bremen"},{"zip_code":"28201","street":"Kantstr. 63","school_type_entity":"Grundschule","school_type":"Grundschule","phone_number":"+49 421 361","old_slug":null,"official_id":"064","name":"Schule an der Kantstraße","lon":8.795234,"lat":53.066289,"homepage_url":null,"federal_state_code":"HB","fax_number":"+49 421 361","email_address":null,"city":"Bremen"},{"zip_code":"28201","street":"Karl-Lerbs-Str. 70 A","school_type_entity":"Grundschule","school_type":"Grundschule","phone_number":"+49 421 361","old_slug":null,"official_id":"065","name":"Schule an der Karl-Lerbs-Straße","lon":8.797311,"lat":53.058418,"homepage_url":null,"federal_state_code":"HB","fax_number":"+49 421 361","email_address":null,"city":"Bremen"},{"zip_code":"28237","street":"Pastorenweg 91-93","school_type_entity":"Grundschule","school_type":"Grundschule","phone_number":"+49 421 361","old_slug":null,"official_id":"069","name":"Schule am Pastorenweg","lon":8.765801,"lat":53.110419,"homepage_url":null,"federal_state_code":"HB","fax_number":"+49 421 361","email_address":null,"city":"Bremen"},{"zip_code":"28207","street":"Auf der Hohwisch 61-63","school_type_entity":"Grundschule","school_type":"Grundschule","phone_number":"+49 421 361","old_slug":null,"official_id":"070","name":"Kinderschule","lon":8.859884,"lat":53.066112,"homepage_url":null,"federal_state_code":"HB","fax_number":"+49 421 361","email_address":null,"city":"Bremen"},{"zip_code":"28259","street":"Kirchhuchtinger Landstr. 28","school_type_entity":"Grundschule","school_type":"Grundschule","phone_number":"+49 421 361","old_slug":null,"official_id":"071","name":"Schule Kirchhuchting","lon":8.740756,"lat":53.050967,"homepage_url":null,"federal_state_code":"HB","fax_number":"+49 421 361","email_address":null,"city":"Bremen"},{"zip_code":"28203","street":"Lessingstr. 30","school_type_entity":"Grundschule","school_type":"Grundschule","phone_number":"+49 421 361","old_slug":null,"official_id":"076","name":"Schule an der Lessingstraße","lon":8.833948,"lat":53.072885,"homepage_url":null,"federal_state_code":"HB","fax_number":"+49 421 361","email_address":null,"city":"Bremen"},{"zip_code":"28777","street":"Lüssumer Ring 55","school_type_entity":"Grundschule","school_type":"Grundschule","phone_number":"+49 421 361","old_slug":"28777-tami-oelfken-schule","official_id":"077","name":"Tami-Oelfken-Schule","lon":8.561188,"lat":53.198157,"homepage_url":"http://www.tami-oelfken-schule.de","federal_state_code":"HB","fax_number":"+49 421 361","email_address":"077@bildung.bremen.de","city":"Bremen"},{"zip_code":"28307","street":"Mahndorfer Heerstr. 55","school_type_entity":"Grundschule","school_type":"Grundschule","phone_number":"+49 421 480063","old_slug":null,"official_id":"081","name":"Schule Mahndorf","lon":8.943854,"lat":53.037499,"homepage_url":null,"federal_state_code":"HB","fax_number":"+49 421 4842161","email_address":null,"city":"Bremen"},{"zip_code":"28217","street":"Melanchthonstr. 150","school_type_entity":"Grundschule","school_type":"Grundschule","phone_number":"+49 421 361","old_slug":null,"official_id":"082","name":"Schule an der Melanchthonstraße","lon":8.789538,"lat":53.095164,"homepage_url":null,"federal_state_code":"HB","fax_number":"+49 421 361","email_address":null,"city":"Bremen"},{"zip_code":"28719","street":"Landskronastr. 46","school_type_entity":"Grundschule","school_type":"Grundschule","phone_number":"+49 421 361","old_slug":null,"official_id":"083","name":"Schule an der Landskronastraße","lon":8.722453,"lat":53.176667,"homepage_url":null,"federal_state_code":"HB","fax_number":"+49 421 361","email_address":null,"city":"Bremen"},{"zip_code":"28217","street":"Nordstr. 349","school_type_entity":"Grundschule","school_type":"Grundschule","phone_number":"+49 421 361","old_slug":null,"official_id":"085","name":"Schule an der Nordstraße","lon":8.777011,"lat":53.096961,"homepage_url":null,"federal_state_code":"HB","fax_number":"+49 421 361","email_address":null,"city":"Bremen"},{"zip_code":"28355","street":"Oberneulander Landstr. 36","school_type_entity":"Grundschule","school_type":"Grundschule","phone_number":"+49 421 259465","old_slug":null,"official_id":"087","name":"Schule Oberneuland","lon":8.936998,"lat":53.090393,"homepage_url":null,"federal_state_code":"HB","fax_number":"+49 421 2575297","email_address":null,"city":"Bremen"},{"zip_code":"28199","street":"Oderstr. 75","school_type_entity":"Grundschule","school_type":"Grundschule","phone_number":"+49 421 361","old_slug":null,"official_id":"088","name":"Schule an der Oderstraße","lon":8.783943,"lat":53.068623,"homepage_url":null,"federal_state_code":"HB","fax_number":"+49 421 361","email_address":null,"city":"Bremen"},{"zip_code":"28239","street":"Oslebshauser Heerstr. 115","school_type_entity":"Grundschule","school_type":"Grundschule","phone_number":"+49 421 361","old_slug":null,"official_id":"089","name":"Schule an der Oslebshauser Heerstr.","lon":8.73834,"lat":53.133271,"homepage_url":null,"federal_state_code":"HB","fax_number":"+49 421 361","email_address":null,"city":"Bremen"},{"zip_code":"28325","street":"Osterholzer Heerstr. 160","school_type_entity":"Grundschule","school_type":"Grundschule","phone_number":"+49 421 361","old_slug":null,"official_id":"090","name":"Schule Osterholz","lon":8.947153,"lat":53.058336,"homepage_url":null,"federal_state_code":"HB","fax_number":"+49 421 361","email_address":null,"city":"Bremen"},{"zip_code":"28325","street":"Koblenzer Str. 10","school_type_entity":"Grundschule","school_type":"Grundschule","phone_number":"+49 421 361","old_slug":"28325-schule-am-pfaelzer-weg","official_id":"091","name":"Schule am Pfälzer Weg","lon":8.959569,"lat":53.06108,"homepage_url":"http://www.pfaelzer-weg.de/","federal_state_code":"HB","fax_number":"+49 421 361","email_address":"091@bildung.bremen.de","city":"Bremen"},{"zip_code":"28329","street":"Paul-Singer-Str. 160","school_type_entity":"Grundschule","school_type":"Grundschule","phone_number":"+49 421 361","old_slug":null,"official_id":"094","name":"Schule an der Paul-Singer-Straße","lon":8.897571,"lat":53.086168,"homepage_url":null,"federal_state_code":"HB","fax_number":"+49 421 361","email_address":null,"city":"Bremen"},{"zip_code":"28357","street":"Werner-von-Siemens-Str. 57","school_type_entity":"Grundschule","school_type":"Grundschule","phone_number":"+49 421 361","old_slug":null,"official_id":"096","name":"Schule an der Philipp-Reis-Straße","lon":8.889999,"lat":53.103624,"homepage_url":null,"federal_state_code":"HB","fax_number":"+49 421 361","email_address":null,"city":"Bremen"},{"zip_code":"28779","street":"Pürschweg 5","school_type_entity":"Grundschule","school_type":"Grundschule","phone_number":"+49 421 361","old_slug":null,"official_id":"097","name":"Schule am Pürschweg","lon":8.574494,"lat":53.202913,"homepage_url":null,"federal_state_code":"HB","fax_number":"+49 421 361","email_address":null,"city":"Bremen"},{"zip_code":"28219","street":"Schleswiger Str. 10","school_type_entity":"Grundschule","school_type":"Grundschule","phone_number":"+49 421 361","old_slug":null,"official_id":"099","name":"Schule am Pulverberg","lon":8.793105,"lat":53.09974,"homepage_url":null,"federal_state_code":"HB","fax_number":"+49 421 361","email_address":null,"city":"Bremen"},{"zip_code":"28197","street":"Dorfkampsweg 50","school_type_entity":"Grundschule","school_type":"Grundschule","phone_number":"+49 421 361","old_slug":null,"official_id":"100","name":"Schule Rablinghausen","lon":8.749434,"lat":53.089575,"homepage_url":null,"federal_state_code":"HB","fax_number":"+49 421 361","email_address":null,"city":"Bremen"},{"zip_code":"28197","street":"Rechtenflether Str. 24","school_type_entity":"Grundschule","school_type":"Grundschule","phone_number":"+49 421 361","old_slug":null,"official_id":"101","name":"Schule an der Rechtenflether Str.","lon":8.76497,"lat":53.083309,"homepage_url":null,"federal_state_code":"HB","fax_number":"+49 421 361","email_address":null,"city":"Bremen"},{"zip_code":"28259","street":"Robinsbalje 10","school_type_entity":"Grundschule","school_type":"Grundschule","phone_number":"+49 421 361","old_slug":null,"official_id":"105","name":"Schule an der Robinsbalje","lon":8.730362,"lat":53.056841,"homepage_url":null,"federal_state_code":"HB","fax_number":"+49 421 361","email_address":null,"city":"Bremen"},{"zip_code":"28237","street":"Fischerhuder Str. 20","school_type_entity":"Grundschule","school_type":"Grundschule","phone_number":"+49 421 361","old_slug":null,"official_id":"106","name":"Schule an der Fischerhuder Straße","lon":8.763237,"lat":53.115325,"homepage_url":null,"federal_state_code":"HB","fax_number":"+49 421 361","email_address":null,"city":"Bremen"},{"zip_code":"28203","street":"Schmidtstr. 9","school_type_entity":"Grundschule","school_type":"Grundschule","phone_number":"+49 421 361","old_slug":null,"official_id":"110","name":"Schule an der Schmidtstraße","lon":8.825604,"lat":53.072077,"homepage_url":null,"federal_state_code":"HB","fax_number":"+49 421 361","email_address":null,"city":"Bremen"},{"zip_code":"28757","street":"Herbartstr. 25","school_type_entity":"Grundschule","school_type":"Grundschule","phone_number":"+49 421 662886","old_slug":null,"official_id":"111","name":"Schule Schönebeck","lon":8.645845,"lat":53.187237,"homepage_url":null,"federal_state_code":"HB","fax_number":"+49 421 664290","email_address":null,"city":"Bremen"},{"zip_code":"28277","street":"Max-Jahn-Weg 13","school_type_entity":"Grundschule","school_type":"Grundschule","phone_number":"+49 421 361","old_slug":null,"official_id":"112","name":"Schule an der Stichnathstraße","lon":8.828468,"lat":53.037934,"homepage_url":null,"federal_state_code":"HB","fax_number":"+49 421 361","email_address":null,"city":"Bremen"},{"zip_code":"28197","street":"Seehauser Landstr. 141","school_type_entity":"Grundschule","school_type":"Grundschule","phone_number":"+49 421 541500","old_slug":null,"official_id":"113","name":"Schule Seehausen","lon":8.708292,"lat":53.111312,"homepage_url":null,"federal_state_code":"HB","fax_number":"+49 421 541500","email_address":null,"city":"Bremen"},{"zip_code":"28309","street":"Osterhop 88","school_type_entity":"Grundschule","school_type":"Grundschule","phone_number":"+49 421 361","old_slug":null,"official_id":"114","name":"Schule am Osterhop","lon":8.90587,"lat":53.04574,"homepage_url":null,"federal_state_code":"HB","fax_number":"+49 421 361","email_address":null,"city":"Bremen"},{"zip_code":"28205","street":"Stader Str. 150","school_type_entity":"Grundschule","school_type":"Grundschule","phone_number":"+49 421 361","old_slug":null,"official_id":"115","name":"Schule an der Stader Straße","lon":8.850111,"lat":53.071786,"homepage_url":null,"federal_state_code":"HB","fax_number":"+49 421 361","email_address":null,"city":"Bremen"},{"zip_code":"28759","street":"Richthofenstr. 37","school_type_entity":"Grundschule","school_type":"Grundschule","phone_number":"+49 421 361","old_slug":null,"official_id":"116","name":"Schule St. Magnus","lon":8.661845,"lat":53.169017,"homepage_url":null,"federal_state_code":"HB","fax_number":"+49 421 361","email_address":null,"city":"Bremen"},{"zip_code":"28197","street":"Stromer Landstr. 26 A","school_type_entity":"Grundschule","school_type":"Grundschule","phone_number":"+49 421 541214","old_slug":null,"official_id":"117","name":"Schule Strom","lon":8.70197,"lat":53.08272,"homepage_url":null,"federal_state_code":"HB","fax_number":"+49 421 541214","email_address":null,"city":"Bremen"},{"zip_code":"28327","street":"Uphuser Str. 9","school_type_entity":"Grundschule","school_type":"Grundschule","phone_number":"+49 421 361","old_slug":null,"official_id":"118","name":"Schule an der Uphuser Straße","lon":8.929475,"lat":53.063193,"homepage_url":null,"federal_state_code":"HB","fax_number":"+49 421 361","email_address":null,"city":"Bremen"},{"zip_code":"28327","street":"Witzlebenstr. 3","school_type_entity":"Grundschule","school_type":"Grundschule","phone_number":"+49 421 361","old_slug":null,"official_id":"127","name":"Schule an der Witzlebenstraße","lon":8.903988,"lat":53.075898,"homepage_url":null,"federal_state_code":"HB","fax_number":"+49 421 361","email_address":null,"city":"Bremen"},{"zip_code":"28259","street":"Delfter Str. 10","school_type_entity":"Grundschule","school_type":"Grundschule","phone_number":"+49 421 361","old_slug":null,"official_id":"129","name":"Schule an der Delfter Straße","lon":8.726084,"lat":53.047134,"homepage_url":null,"federal_state_code":"HB","fax_number":"+49 421 361","email_address":null,"city":"Bremen"},{"zip_code":"27580","street":"Kleiner Blink 8","school_type_entity":"Grundschule","school_type":"Grundschule","phone_number":"+49 471 391","old_slug":null,"official_id":"150","name":"Amerikanische Schule","lon":8.595378,"lat":53.574054,"homepage_url":null,"federal_state_code":"HB","fax_number":"+49 471 391","email_address":null,"city":"Bremerhaven"},{"zip_code":"27572","street":"Sandbredenstr. 11","school_type_entity":"Grundschule","school_type":"Grundschule","phone_number":"+49 471 3080382","old_slug":null,"official_id":"151","name":"Altwulsdorfer Schule","lon":8.60061,"lat":53.504161,"homepage_url":null,"federal_state_code":"HB","fax_number":"+49 471 3080383","email_address":null,"city":"Bremerhaven"},{"zip_code":"27572","street":"Heidacker 13","school_type_entity":"Grundschule","school_type":"Grundschule","phone_number":"+49 471 391","old_slug":null,"official_id":"152","name":"Fichteschule","lon":8.593772,"lat":53.516719,"homepage_url":null,"federal_state_code":"HB","fax_number":"+49 471 391","email_address":null,"city":"Bremerhaven"},{"zip_code":"27574","street":"Braunstr. 5","school_type_entity":"Grundschule","school_type":"Grundschule","phone_number":"+49 471 391","old_slug":null,"official_id":"153","name":"Fritz-Reuter-Schule","lon":8.610881,"lat":53.519135,"homepage_url":null,"federal_state_code":"HB","fax_number":"+49 471 391","email_address":null,"city":"Bremerhaven"},{"zip_code":"27574","street":"Isarstr. 58","school_type_entity":"Grundschule","school_type":"Grundschule","phone_number":"+49 471 391","old_slug":null,"official_id":"154","name":"Surheider Schule","lon":8.639592,"lat":53.518845,"homepage_url":null,"federal_state_code":"HB","fax_number":"+49 471 391","email_address":null,"city":"Bremerhaven"},{"zip_code":"27574","street":"Schiffdorfer Chaussee 193","school_type_entity":"Grundschule","school_type":"Grundschule","phone_number":"+49 471 391","old_slug":null,"official_id":"155","name":"Veernschule","lon":8.62794,"lat":53.53006,"homepage_url":null,"federal_state_code":"HB","fax_number":"+49 471 391","email_address":null,"city":"Bremerhaven"},{"zip_code":"27570","street":"Allmersstr. 2","school_type_entity":"Grundschule","school_type":"Grundschule","phone_number":"+49 471 391","old_slug":null,"official_id":"156","name":"Allmersschule","lon":8.593852,"lat":53.529132,"homepage_url":null,"federal_state_code":"HB","fax_number":"+49 471 391","email_address":null,"city":"Bremerhaven"},{"zip_code":"27570","street":"Klußmannstr. 10-11","school_type_entity":"Grundschule","school_type":"Grundschule","phone_number":"+49 471 9584520","old_slug":null,"official_id":"157","name":"Gorch-Fock-Schule","lon":8.586619,"lat":53.53055,"homepage_url":null,"federal_state_code":"HB","fax_number":"+49 471 95845213","email_address":null,"city":"Bremerhaven"},{"zip_code":"27568","street":"Deichstr. 39","school_type_entity":"Grundschule","school_type":"Grundschule","phone_number":"+49 471 391","old_slug":null,"official_id":"159","name":"Goetheschule","lon":8.583124,"lat":53.544238,"homepage_url":null,"federal_state_code":"HB","fax_number":"+49 471 391","email_address":null,"city":"Bremerhaven"},{"zip_code":"27568","street":"Am Leher Tor 21","school_type_entity":"Grundschule","school_type":"Grundschule","phone_number":"+49 471 3000141","old_slug":null,"official_id":"160","name":"Pestalozzischule","lon":8.578417,"lat":53.551596,"homepage_url":null,"federal_state_code":"HB","fax_number":"+49 471 3000149","email_address":null,"city":"Bremerhaven"},{"zip_code":"27576","street":"Dionysiusstr. 52","school_type_entity":"Grundschule","school_type":"Grundschule","phone_number":"+49 471 309","old_slug":null,"official_id":"163","name":"Lutherschule","lon":8.591488,"lat":53.55999,"homepage_url":null,"federal_state_code":"HB","fax_number":"+49 471 309","email_address":null,"city":"Bremerhaven"},{"zip_code":"27580","street":"Brookstr. 3","school_type_entity":"Grundschule","school_type":"Grundschule","phone_number":"+49 471 391","old_slug":null,"official_id":"164","name":"Marktschule","lon":8.586547,"lat":53.566442,"homepage_url":null,"federal_state_code":"HB","fax_number":"+49 471 391","email_address":null,"city":"Bremerhaven"},{"zip_code":"27576","street":"Frenssenstr. 49","school_type_entity":"Grundschule","school_type":"Grundschule","phone_number":"+49 471 391","old_slug":null,"official_id":"165","name":"Astrid-Lindgren-Schule","lon":8.57778,"lat":53.558311,"homepage_url":null,"federal_state_code":"HB","fax_number":"+49 471 391","email_address":null,"city":"Bremerhaven"},{"zip_code":"27580","street":"Gaußstr. 107","school_type_entity":"Grundschule","school_type":"Grundschule","phone_number":"+49 471 3082410","old_slug":null,"official_id":"166","name":"Gaußschule I","lon":8.587594,"lat":53.579315,"homepage_url":null,"federal_state_code":"HB","fax_number":"+49 471 3082412","email_address":null,"city":"Bremerhaven"},{"zip_code":"27578","street":"Debstedter Weg 84","school_type_entity":"Grundschule","school_type":"Grundschule","phone_number":"+49 471 391","old_slug":null,"official_id":"167","name":"Fritz-Husmann-Schule","lon":8.607444,"lat":53.59404,"homepage_url":null,"federal_state_code":"HB","fax_number":"+49 471 391","email_address":null,"city":"Bremerhaven"},{"zip_code":"27578","street":"Ferdinand-Lassalle-Str. 68","school_type_entity":"Grundschule","school_type":"Grundschule","phone_number":"+49 471 391","old_slug":null,"official_id":"168","name":"Karl-Marx-Schule","lon":8.6217,"lat":53.58749,"homepage_url":null,"federal_state_code":"HB","fax_number":"+49 471 391","email_address":null,"city":"Bremerhaven"},{"zip_code":"27578","street":"Mecklenburger Weg 174","school_type_entity":"Grundschule","school_type":"Grundschule","phone_number":"+49 471 391","old_slug":null,"official_id":"169","name":"Friedrich-Ebert-Schule","lon":8.624206,"lat":53.595276,"homepage_url":null,"federal_state_code":"HB","fax_number":"+49 471 391","email_address":null,"city":"Bremerhaven"},{"zip_code":"27570","street":"Flensburger Str. 10","school_type_entity":"Oberschule","school_type":"Oberschule","phone_number":"+49 471 309","old_slug":null,"official_id":"172","name":"Immanuel-Kant-Schule","lon":8.595368,"lat":53.52374,"homepage_url":null,"federal_state_code":"HB","fax_number":"+49 471 309","email_address":null,"city":"Bremerhaven"},{"zip_code":"27580","street":"Gaußstr. 107","school_type_entity":"Oberschule","school_type":"Oberschule","phone_number":"+49 471 3082420","old_slug":null,"official_id":"174","name":"Gaußschule II","lon":8.587594,"lat":53.579315,"homepage_url":null,"federal_state_code":"HB","fax_number":"+49 471 3082422","email_address":null,"city":"Bremerhaven"},{"zip_code":"27580","street":"Brookstr. 7","school_type_entity":"Oberschule","school_type":"Oberschule","phone_number":"+49 471 391","old_slug":null,"official_id":"176","name":"Schule Am Leher Markt","lon":8.588232,"lat":53.566792,"homepage_url":null,"federal_state_code":"HB","fax_number":"+49 471 391","email_address":null,"city":"Bremerhaven"},{"zip_code":"28309","street":"Dudweilerstr. 2","school_type_entity":"Förderzentrum","school_type":"Förderzentrum Lernen-Sprache-Verhalten","phone_number":"+49 421 361","old_slug":null,"official_id":"206","name":"Schule an der Dudweilerstraße","lon":8.911278,"lat":53.05786,"homepage_url":null,"federal_state_code":"HB","fax_number":"+49 421 361","email_address":null,"city":"Bremen"},{"zip_code":"28757","street":"Kerschensteinerstr. 4","school_type_entity":"Förderzentrum","school_type":"Förderzentrum Lernen-Sprache-Verhalten","phone_number":"+49 421 361","old_slug":null,"official_id":"209","name":"Schule an der Kerschensteinerstr.","lon":8.621463,"lat":53.174794,"homepage_url":null,"federal_state_code":"HB","fax_number":"+49 421 361","email_address":null,"city":"Bremen"},{"zip_code":"28199","street":"Mainstr. 18","school_type_entity":"Förderzentrum","school_type":"Förderzentrum Lernen-Sprache-Verhalten","phone_number":"+49 421 361","old_slug":null,"official_id":"210","name":"Schule an der Mainstraße","lon":8.794551,"lat":53.068927,"homepage_url":null,"federal_state_code":"HB","fax_number":"+49 421 361","email_address":null,"city":"Bremen"},{"zip_code":"28325","street":"Züricher Str. 40","school_type_entity":"Förderzentrum","school_type":"Förderzentrum sonstige","phone_number":"+49 421 408","old_slug":null,"official_id":"216","name":"Schule an der Züricher Straße","lon":8.940238,"lat":53.06446,"homepage_url":null,"federal_state_code":"HB","fax_number":"+49 421 03212","email_address":null,"city":"Bremen"},{"zip_code":"28213","street":"Fritz-Gansberg-Str. 22","school_type_entity":"Förderzentrum","school_type":"Förderzentrum sonstige","phone_number":"+49 421 361","old_slug":null,"official_id":"223","name":"Schule an der Fritz-Gansberg-Straße","lon":8.8514,"lat":53.090997,"homepage_url":null,"federal_state_code":"HB","fax_number":"+49 421 361","email_address":null,"city":"Bremen"},{"zip_code":"28211","street":"An der Gete 103","school_type_entity":"Förderzentrum","school_type":"Förderzentrum sonstige","phone_number":"+49 421 361","old_slug":null,"official_id":"225","name":"Georg-Droste-Schule","lon":8.851296,"lat":53.079216,"homepage_url":null,"federal_state_code":"HB","fax_number":"+49 421 361","email_address":null,"city":"Bremen"},{"zip_code":"28717","street":"Louis-Seegelken-Str. 130","school_type_entity":"Förderzentrum","school_type":"Förderzentrum sonstige","phone_number":"+49 421 361","old_slug":null,"official_id":"226","name":"Paul-Goldschmidt-Schule","lon":8.680497,"lat":53.177942,"homepage_url":null,"federal_state_code":"HB","fax_number":"+49 421 361","email_address":null,"city":"Bremen"},{"zip_code":"28359","street":"Marcusallee 31","school_type_entity":"Förderzentrum","school_type":"Förderzentrum sonstige","phone_number":"+49 421 361","old_slug":null,"official_id":"227","name":"Schule an der Marcusallee","lon":8.880244,"lat":53.090221,"homepage_url":null,"federal_state_code":"HB","fax_number":"+49 421 361","email_address":null,"city":"Bremen"},{"zip_code":"27580","street":"Wurster Str. 387","school_type_entity":"Förderzentrum","school_type":"Förderzentrum sonstige","phone_number":"+49 471 391","old_slug":null,"official_id":"253","name":"Anne-Frank-Schule","lon":8.535101,"lat":53.602602,"homepage_url":null,"federal_state_code":"HB","fax_number":"+49 471 391","email_address":null,"city":"Bremerhaven"},{"zip_code":"28195","street":"Doventorscontrescarpe (Block A) 172","school_type_entity":"Abendschule/ Erwachsenen Schule","school_type":"Abendschule/Erwachsenen Schule","phone_number":"+49 421 361","old_slug":null,"official_id":"301","name":"Erwachsenenschule","lon":8.804322,"lat":53.080426,"homepage_url":null,"federal_state_code":"HB","fax_number":"+49 421 361","email_address":null,"city":"Bremen"},{"zip_code":"28195","street":"Kleine Helle 7","school_type_entity":"Durchgängiges Gymnasium","school_type":"Durchgängiges Gymnasium","phone_number":"+49 421 361","old_slug":"28195-altes-gymnasium-bremen","official_id":"302","name":"Altes Gymnasium","lon":8.801944,"lat":53.083611,"homepage_url":"http://www.altes-gymnasium-bremen.de","federal_state_code":"HB","fax_number":"+49 421 361","email_address":"webmaster@altes-gymnasium-bremen.de","city":"Bremen"},{"zip_code":"28757","street":"Kerschensteinerstr. 2","school_type_entity":"Durchgängiges Gymnasium","school_type":"Durchgängiges Gymnasium","phone_number":"+49 421 361","old_slug":null,"official_id":"305","name":"Gymnasium Vegesack","lon":8.621404,"lat":53.176465,"homepage_url":null,"federal_state_code":"HB","fax_number":"+49 421 361","email_address":null,"city":"Bremen"},{"zip_code":"28205","street":"Hamburger Str. 12","school_type_entity":"Durchgängiges Gymnasium","school_type":"Durchgängiges Gymnasium","phone_number":"+49 421 361","old_slug":null,"official_id":"306","name":"Gymnasium an der Hamburger Straße","lon":8.835162,"lat":53.070429,"homepage_url":null,"federal_state_code":"HB","fax_number":"+49 421 361","email_address":null,"city":"Bremen"},{"zip_code":"28259","street":"Delfter Str. 16","school_type_entity":"Durchgängiges Gymnasium","school_type":"Durchgängiges Gymnasium","phone_number":"+49 421 361","old_slug":null,"official_id":"307","name":"Alexander-von-Humboldt-Gymnasium","lon":8.727874,"lat":53.046753,"homepage_url":null,"federal_state_code":"HB","fax_number":"+49 421 361","email_address":null,"city":"Bremen"},{"zip_code":"28209","street":"Hermann-Böse-Str. 1-9","school_type_entity":"Durchgängiges Gymnasium","school_type":"Durchgängiges Gymnasium","phone_number":"+49 421 361","old_slug":null,"official_id":"308","name":"Hermann-Böse-Gymnasium","lon":8.819868,"lat":53.083872,"homepage_url":null,"federal_state_code":"HB","fax_number":"+49 421 361","email_address":null,"city":"Bremen"},{"zip_code":"28359","street":"Vorkampsweg 97","school_type_entity":"Durchgängiges Gymnasium","school_type":"Durchgängiges Gymnasium","phone_number":"+49 421 361","old_slug":null,"official_id":"309","name":"Gymnasium Horn","lon":8.872612,"lat":53.10581,"homepage_url":null,"federal_state_code":"HB","fax_number":"+49 421 361","email_address":null,"city":"Bremen"},{"zip_code":"28209","street":"Schwachhauser Heerstr. 62","school_type_entity":"Durchgängiges Gymnasium","school_type":"Durchgängiges Gymnasium","phone_number":"+49 421 361","old_slug":null,"official_id":"312","name":"Kippenberg-Gymnasium","lon":8.839288,"lat":53.082878,"homepage_url":null,"federal_state_code":"HB","fax_number":"+49 421 361","email_address":null,"city":"Bremen"},{"zip_code":"28277","street":"Alfred-Faust-Str. 6","school_type_entity":"Durchgängiges Gymnasium","school_type":"Durchgängiges Gymnasium","phone_number":"+49 421 361","old_slug":null,"official_id":"324","name":"Gymnasium Links der Weser","lon":8.83045,"lat":53.033271,"homepage_url":null,"federal_state_code":"HB","fax_number":"+49 421 361","email_address":null,"city":"Bremen"},{"zip_code":"27574","street":"Schiffdorfer Chaussee 97","school_type_entity":"Schulzentrum des Sekundarbereich","school_type":"Schulzentrum des Sekundarbereich  II (Gymnasiale Oberstufe)","phone_number":"+49 471 391","old_slug":null,"official_id":"331","name":"Schulzentrum Carl von Ossietzky","lon":8.613309,"lat":53.529971,"homepage_url":null,"federal_state_code":"HB","fax_number":"+49 471 391","email_address":null,"city":"Bremerhaven"},{"zip_code":"27568","street":"Walter-Kolb-Weg 2","school_type_entity":"Schulzentrum des Sekundarbereich","school_type":"Schulzentrum des Sekundarbereich  II (Gymnasiale Oberstufe)","phone_number":"+49 471 3000110","old_slug":"27568-schulzentrum-geschwister-scholl","official_id":"333","name":"Schulzentrum Geschwister Scholl","lon":8.572632,"lat":53.557323,"homepage_url":"http://www.scholl-gyo.de/","federal_state_code":"HB","fax_number":"+49 471 3000113","email_address":"scholl.gyo@schule.bremerhaven.de","city":"Bremerhaven"},{"zip_code":"27568","street":"Grazer Str. 61","school_type_entity":"Durchgängiges Gymnasium","school_type":"Durchgängiges Gymnasium","phone_number":"+49 471 3000100","old_slug":null,"official_id":"334","name":"Lloyd Gymnasium Bremerhaven","lon":8.574126,"lat":53.550026,"homepage_url":null,"federal_state_code":"HB","fax_number":"+49 471 3000159","email_address":null,"city":"Bremerhaven"},{"zip_code":"27568","street":"Sonnenstr. 22","school_type_entity":"Abendschule/ Erwachsenen Schule","school_type":"Abendschule/Erwachsenen Schule","phone_number":"+49 471 391","old_slug":null,"official_id":"349","name":"Abendschule Bremerhaven","lon":8.575879,"lat":53.549114,"homepage_url":null,"federal_state_code":"HB","fax_number":"+49 471 391","email_address":null,"city":"Bremerhaven"},{"zip_code":"28217","street":"Steffensweg 171","school_type_entity":"Berufsbildende Schule","school_type":"Berufsbildende Schule","phone_number":"+49 421 361","old_slug":null,"official_id":"351","name":"Allgemeine Berufsbildende Schule","lon":8.781803,"lat":53.097225,"homepage_url":null,"federal_state_code":"HB","fax_number":"+49 421 361","email_address":null,"city":"Bremen"},{"zip_code":"28239","street":"Reiherstr. 80","school_type_entity":"Berufsbildende Schule","school_type":"Berufsbildende Schule","phone_number":"+49 421 361","old_slug":null,"official_id":"352","name":"Berufsbildende Schule für Metalltechnik","lon":8.722589,"lat":53.139732,"homepage_url":null,"federal_state_code":"HB","fax_number":"+49 421 361","email_address":null,"city":"Bremen"},{"zip_code":"28259","street":"Delfter Str. 16","school_type_entity":"Berufsbildende Schule","school_type":"Berufsbildende Schule","phone_number":"+49 421 361","old_slug":null,"official_id":"355","name":"Wilhelm Wagenfeld Schule","lon":8.727874,"lat":53.046753,"homepage_url":null,"federal_state_code":"HB","fax_number":"+49 421 361","email_address":null,"city":"Bremen"},{"zip_code":"28757","street":"Kerschensteinerstr. 5","school_type_entity":"Berufsbildende Schule","school_type":"Berufsbildende Schule","phone_number":"+49 421 361","old_slug":null,"official_id":"358","name":"Schulzentrum des Sekundarbereichs II","lon":8.620554,"lat":53.17542,"homepage_url":null,"federal_state_code":"HB","fax_number":"+49 421 361","email_address":null,"city":"Bremen"},{"zip_code":"28327","street":"Carl-Goerdeler-Str. 27","school_type_entity":"Berufsbildende Schule","school_type":"Berufsbildende Schule","phone_number":"+49 421 361","old_slug":null,"official_id":"359","name":"Berufsbildende Schule für Einzelhandel und Logistik","lon":8.896204,"lat":53.076167,"homepage_url":null,"federal_state_code":"HB","fax_number":"+49 421 361","email_address":null,"city":"Bremen"},{"zip_code":"28217","street":"Ellmersstr. 24","school_type_entity":"Berufsbildende Schule","school_type":"Berufsbildende Schule","phone_number":"+49 421 361","old_slug":null,"official_id":"360","name":"Berufsschule für den Großhandel,","lon":8.790696,"lat":53.089327,"homepage_url":null,"federal_state_code":"HB","fax_number":"+49 421 361","email_address":null,"city":"Bremen"},{"zip_code":"28217","street":"Grenzstr. 90","school_type_entity":"Berufsbildende Schule","school_type":"Berufsbildende Schule","phone_number":"+49 421 361","old_slug":null,"official_id":"361","name":"Schulzentrum Grenzstraße","lon":8.785338,"lat":53.094528,"homepage_url":null,"federal_state_code":"HB","fax_number":"+49 421 361","email_address":null,"city":"Bremen"},{"zip_code":"28199","street":"Delmestr. 141 B","school_type_entity":"Berufsbildende Schule","school_type":"Berufsbildende Schule","phone_number":"+49 421 361","old_slug":null,"official_id":"364","name":"Schulzentrum des Sekundarbereichs II","lon":8.787636,"lat":53.065876,"homepage_url":null,"federal_state_code":"HB","fax_number":"+49 421 361","email_address":null,"city":"Bremen"},{"zip_code":"28217","street":"Meta-Sattler-Str. 33","school_type_entity":"Berufsbildende Schule","school_type":"Berufsbildende Schule","phone_number":"+49 421 361","old_slug":null,"official_id":"368","name":"Schulzentrum des Sekundarbereichs II","lon":8.794887,"lat":53.088871,"homepage_url":null,"federal_state_code":"HB","fax_number":"+49 421 361","email_address":null,"city":"Bremen"},{"zip_code":"28195","street":"An der Weserbahn 4","school_type_entity":"Berufsbildende Schule","school_type":"Berufsbildende Schule","phone_number":"+49 421 361","old_slug":null,"official_id":"369","name":"Technisches Bildungszentrum Mitte","lon":8.796239,"lat":53.085334,"homepage_url":null,"federal_state_code":"HB","fax_number":"+49 421 361","email_address":null,"city":"Bremen"},{"zip_code":"27568","street":"Max-Eyth-Platz 3-4","school_type_entity":"Berufsbildende Schule","school_type":"Berufsbildende Schule","phone_number":"+49 471 391","old_slug":null,"official_id":"382","name":"Kaufmännische Lehranstalten","lon":8.576784,"lat":53.548575,"homepage_url":null,"federal_state_code":"HB","fax_number":"+49 471 391","email_address":null,"city":"Bremerhaven"},{"zip_code":"27568","street":"Walter-Kolb-Weg 2","school_type_entity":"Berufsbildende Schule","school_type":"Berufsbildende Schule","phone_number":"+49 471 3000120","old_slug":"27568-schulzentrum-geschwister-scholl","official_id":"383","name":"Schulzentrum Geschwister Scholl","lon":8.572632,"lat":53.557323,"homepage_url":"http://www.scholl-gyo.de/","federal_state_code":"HB","fax_number":"+49 471 3000123","email_address":"scholl.gyo@schule.bremerhaven.de","city":"Bremerhaven"},{"zip_code":"27576","street":"Hinrich-Schmalfeldt-Str. 26","school_type_entity":"Berufsbildende Schule","school_type":"Berufsbildende Schule","phone_number":"+49 471 958","old_slug":null,"official_id":"384","name":"Werkstattschule Bremerhaven","lon":8.589526,"lat":53.558712,"homepage_url":null,"federal_state_code":"HB","fax_number":"+49 471 501","email_address":null,"city":"Bremerhaven"},{"zip_code":"27574","street":"Georg-Büchner-Str. 7","school_type_entity":"Berufsbildende Schule","school_type":"Berufsbildende Schule","phone_number":"+49 471 39198","old_slug":null,"official_id":"385","name":"Schulzentrum Carl von Ossietzky","lon":8.612887,"lat":53.531824,"homepage_url":null,"federal_state_code":"HB","fax_number":"+49 471 39198","email_address":null,"city":"Bremerhaven"},{"zip_code":"27574","street":"Georg-Büchner-Str. 13","school_type_entity":"Berufsbildende Schule","school_type":"Berufsbildende Schule","phone_number":"+49 471 309","old_slug":null,"official_id":"386","name":"Schulzentrum Carl von Ossietzky","lon":8.612722,"lat":53.533424,"homepage_url":null,"federal_state_code":"HB","fax_number":"+49 471 309","email_address":null,"city":"Bremerhaven"},{"zip_code":"28719","street":"Helsinkistr. 10","school_type_entity":"Oberschule","school_type":"Oberschule","phone_number":"+49 421 361","old_slug":null,"official_id":"403","name":"Oberschule an der Helsinkistraße","lon":8.722547,"lat":53.173002,"homepage_url":null,"federal_state_code":"HB","fax_number":"+49 421 361","email_address":null,"city":"Bremen"},{"zip_code":"28309","street":"Drebberstr. 10","school_type_entity":"Oberschule","school_type":"Oberschule","phone_number":"+49 421 361","old_slug":null,"official_id":"404","name":"Wilhelm-Olbers-Oberschule","lon":8.898694,"lat":53.040673,"homepage_url":null,"federal_state_code":"HB","fax_number":"+49 421 361","email_address":null,"city":"Bremen"},{"zip_code":"28325","street":"Koblenzer Str. 15","school_type_entity":"Oberschule","school_type":"Oberschule","phone_number":"+49 421 361","old_slug":null,"official_id":"409","name":"Oberschule an der Koblenzer Straße","lon":8.960328,"lat":53.062291,"homepage_url":null,"federal_state_code":"HB","fax_number":"+49 421 361","email_address":null,"city":"Bremen"},{"zip_code":"28755","street":"Lerchenstr. 86","school_type_entity":"Oberschule","school_type":"Oberschule","phone_number":"+49 421 361","old_slug":null,"official_id":"410","name":"Oberschule an der Lerchenstraße","lon":8.6279,"lat":53.191413,"homepage_url":null,"federal_state_code":"HB","fax_number":"+49 421 361","email_address":null,"city":"Bremen"},{"zip_code":"28197","street":"Butjadinger Str. 21","school_type_entity":"Oberschule","school_type":"Oberschule","phone_number":"+49 421 361","old_slug":"28197-oberschule-roter-sand","official_id":"412","name":"Oberschule Roter Sand","lon":8.759567,"lat":53.081083,"homepage_url":"http://www.schule-butjadinger.de","federal_state_code":"HB","fax_number":"+49 421 361","email_address":"412@bildung.bremen.de","city":"Bremen"},{"zip_code":"28779","street":"Lehmhorster Str. 5","school_type_entity":"Oberschule","school_type":"Oberschule","phone_number":"+49 421 361","old_slug":null,"official_id":"414","name":"Oberschule an der Lehmhorster Straße","lon":8.5701,"lat":53.196906,"homepage_url":null,"federal_state_code":"HB","fax_number":"+49 421 361","email_address":null,"city":"Bremen"},{"zip_code":"28355","street":"Uppe Angst 31","school_type_entity":"Oberschule","school_type":"Oberschule","phone_number":"+49 421 361","old_slug":"28355-schulzentrum-rockwinkel","official_id":"416","name":"Oberschule Rockwinkel","lon":8.899798,"lat":53.097098,"homepage_url":"http://www.schule.bremen.de/schulen/rockwinkel/","federal_state_code":"HB","fax_number":"+49 421 361","email_address":"nitzsche@uni-bremen.de","city":"Bremen"},{"zip_code":"28205","street":"Schaumburger Str. 49 A","school_type_entity":"Oberschule","school_type":"Oberschule","phone_number":"+49 421 361","old_slug":null,"official_id":"417","name":"Oberschule an der Schaumburger Straße","lon":8.846135,"lat":53.073476,"homepage_url":null,"federal_state_code":"HB","fax_number":"+49 421 361","email_address":null,"city":"Bremen"},{"zip_code":"28359","street":"Ronzelenstr. 51","school_type_entity":"Oberschule","school_type":"Oberschule","phone_number":"+49 421 361","old_slug":"28359-schulzentrum-ronzelenstrasse","official_id":"418","name":"Oberschule an der Ronzelenstraße","lon":8.875806,"lat":53.095236,"homepage_url":"http://www.sz-ronzelen.de/","federal_state_code":"HB","fax_number":"+49 421 361","email_address":"418@bildung.bremen.de","city":"Bremen"},{"zip_code":"28279","street":"Bunnsackerweg 2","school_type_entity":"Oberschule","school_type":"Oberschule","phone_number":"+49 421 361","old_slug":"28279-schulzentrum-habenhausen","official_id":"423","name":"Oberschule Habenhausen","lon":8.860104,"lat":53.045442,"homepage_url":"http://www.schule.bremen.de/schulen/Habenhausen/","federal_state_code":"HB","fax_number":"+49 421 361","email_address":"423@bildung.bremen.de","city":"Bremen"},{"zip_code":"28217","street":"Helgolander Str. 67","school_type_entity":"Oberschule","school_type":"Oberschule","phone_number":"+49 421 361","old_slug":null,"official_id":"424","name":"Oberschule an der Helgolander Straße","lon":8.784648,"lat":53.098944,"homepage_url":null,"federal_state_code":"HB","fax_number":"+49 421 361","email_address":null,"city":"Bremen"},{"zip_code":"28329","street":"Konrad-Adenauer-Allee 86","school_type_entity":"Oberschule","school_type":"Oberschule","phone_number":"+49 421 361","old_slug":null,"official_id":"425","name":"Oberschule an der Julius-Brecht-Allee","lon":8.86729,"lat":53.076147,"homepage_url":null,"federal_state_code":"HB","fax_number":"+49 421 361","email_address":null,"city":"Bremen"},{"zip_code":"28215","street":"Gothaer Str. 60","school_type_entity":"Oberschule","school_type":"Oberschule","phone_number":"+49 421 361","old_slug":null,"official_id":"428","name":"Oberschule Findorff","lon":8.803964,"lat":53.097532,"homepage_url":null,"federal_state_code":"HB","fax_number":"+49 421 361","email_address":null,"city":"Bremen"},{"zip_code":"28309","street":"Parsevalstr. 1","school_type_entity":"Oberschule","school_type":"Oberschule","phone_number":"+49 421 361","old_slug":null,"official_id":"429","name":"Oberschule Sebaldsbrück","lon":8.885846,"lat":53.067796,"homepage_url":null,"federal_state_code":"HB","fax_number":"+49 421 361","email_address":null,"city":"Bremen"},{"zip_code":"28219","street":"Bremerhavener Str. 83","school_type_entity":"Oberschule","school_type":"Oberschule","phone_number":"+49 421 361","old_slug":null,"official_id":"430","name":"Oberschule am Waller Ring","lon":8.778756,"lat":53.099159,"homepage_url":null,"federal_state_code":"HB","fax_number":"+49 421 361","email_address":null,"city":"Bremen"},{"zip_code":"28259","street":"Flämische Str. 9","school_type_entity":"Oberschule","school_type":"Oberschule","phone_number":"+49 421 361","old_slug":null,"official_id":"431","name":"Roland zu Bremen Oberschule","lon":8.713438,"lat":53.052977,"homepage_url":null,"federal_state_code":"HB","fax_number":"+49 421 361","email_address":null,"city":"Bremen"},{"zip_code":"28201","street":"Valckenburghstr. 1-3","school_type_entity":"Oberschule","school_type":"Oberschule","phone_number":"+49 421 361","old_slug":null,"official_id":"436","name":"Wilhelm-Kaisen-Oberschule","lon":8.815193,"lat":53.051605,"homepage_url":null,"federal_state_code":"HB","fax_number":"+49 421 361","email_address":null,"city":"Bremen"},{"zip_code":"28327","street":"Kolk 2","school_type_entity":"Oberschule","school_type":"Oberschule","phone_number":"+49 421 361","old_slug":null,"official_id":"438","name":"Albert-Einstein-Oberschule","lon":8.928456,"lat":53.061103,"homepage_url":null,"federal_state_code":"HB","fax_number":"+49 421 null","email_address":null,"city":"Bremen"},{"zip_code":"28239","street":"Am Oslebshauser Park 1-3","school_type_entity":"Oberschule","school_type":"Oberschule","phone_number":"+49 421 361","old_slug":null,"official_id":"440","name":"Oberschule im Park","lon":8.739102,"lat":53.130886,"homepage_url":null,"federal_state_code":"HB","fax_number":"+49 421 361","email_address":null,"city":"Bremen"},{"zip_code":"28209","street":"Parkallee 39","school_type_entity":"Oberschule","school_type":"Oberschule","phone_number":"+49 421 361","old_slug":null,"official_id":"441","name":"Oberschule Am Barkhof","lon":8.822714,"lat":53.082508,"homepage_url":null,"federal_state_code":"HB","fax_number":"+49 421 496","email_address":null,"city":"Bremen"},{"zip_code":"28237","street":"Halmerweg 71","school_type_entity":"Oberschule","school_type":"Oberschule","phone_number":"+49 421 361","old_slug":null,"official_id":"442","name":"Oberschule Ohlenhof","lon":8.763879,"lat":53.122323,"homepage_url":null,"federal_state_code":"HB","fax_number":"+49 421 361","email_address":null,"city":"Bremen"},{"zip_code":"28779","street":"Eggestedter Str. 20","school_type_entity":"Oberschule","school_type":"Oberschule","phone_number":"+49 421 361","old_slug":null,"official_id":"443","name":"Oberschule an der Egge","lon":8.566084,"lat":53.190144,"homepage_url":null,"federal_state_code":"HB","fax_number":"+49 421 361","email_address":null,"city":"Bremen"},{"zip_code":"28239","street":"Ernst-Waldau-Str. 1 A","school_type_entity":"Oberschule","school_type":"Oberschule","phone_number":"+49 421 361","old_slug":null,"official_id":"444","name":"Neue Oberschule Gröpelingen","lon":8.753226,"lat":53.128145,"homepage_url":null,"federal_state_code":"HB","fax_number":"+49 421 361","email_address":null,"city":"Bremen"},{"zip_code":"28327","street":"Kurt-Schumacher-Allee 65","school_type_entity":"Oberschule","school_type":"Oberschule","phone_number":"+49 421 361","old_slug":null,"official_id":"445","name":"Oberschule an der Kurt-Schumacher-Allee","lon":8.893096,"lat":53.078857,"homepage_url":null,"federal_state_code":"HB","fax_number":"+49 421 361","email_address":null,"city":"Bremen"},{"zip_code":"27570","street":"Schillerstr. 87","school_type_entity":"Oberschule","school_type":"Oberschule","phone_number":"+49 471 391","old_slug":null,"official_id":"451","name":"Humboldtschule","lon":8.597035,"lat":53.527616,"homepage_url":null,"federal_state_code":"HB","fax_number":"+49 471 391","email_address":null,"city":"Bremerhaven"},{"zip_code":"27570","street":"Friedrich-Ebert-Str. 10","school_type_entity":"Oberschule","school_type":"Oberschule","phone_number":"+49 471 391","old_slug":null,"official_id":"452","name":"Wilhelm-Raabe-Schule","lon":8.592109,"lat":53.539161,"homepage_url":null,"federal_state_code":"HB","fax_number":"+49 471 391","email_address":null,"city":"Bremerhaven"},{"zip_code":"27574","street":"Georg-Büchner-Str. 5","school_type_entity":"Oberschule","school_type":"Oberschule","phone_number":"+49 471 391","old_slug":null,"official_id":"456","name":"Schulzentrum Carl von Ossietzky, Oberschule","lon":8.613503,"lat":53.530746,"homepage_url":null,"federal_state_code":"HB","fax_number":"+49 471 391","email_address":null,"city":"Bremerhaven"},{"zip_code":"27572","street":"Dreibergen 21","school_type_entity":"Oberschule","school_type":"Oberschule","phone_number":"+49 471 3001013","old_slug":"27572-paula-modersohn-schule","official_id":"457","name":"Paula-Modersohn-Schule","lon":8.601971,"lat":53.507238,"homepage_url":"http://www.paula-modersohn-schule.de","federal_state_code":"HB","fax_number":"+49 471 3001030","email_address":"pms@bremerhaven-net.de","city":"Bremerhaven"},{"zip_code":"27578","street":"Fuhrenweg 3-19","school_type_entity":"Oberschule","school_type":"Oberschule","phone_number":"+49 471 391","old_slug":null,"official_id":"458","name":"Johann-Gutenberg-Schule","lon":8.615493,"lat":53.595541,"homepage_url":null,"federal_state_code":"HB","fax_number":"+49 471 391","email_address":null,"city":"Bremerhaven"},{"zip_code":"28237","street":"Lissaer Str. 7","school_type_entity":"Oberschule","school_type":"Oberschule","phone_number":"+49 421 361","old_slug":"28237-gesamtschule-bremen-west","official_id":"501","name":"Gesamtschule Bremen-West","lon":8.774221,"lat":53.113966,"homepage_url":"http://www.gesamtschule-west.de/","federal_state_code":"HB","fax_number":"+49 421 49614620","email_address":"501@bildung.bremen.de","city":"Bremen"},{"zip_code":"28325","street":"Walliser Str. 125","school_type_entity":"Oberschule","school_type":"Oberschule","phone_number":"+49 421 361","old_slug":null,"official_id":"502","name":"Gesamtschule Bremen-Ost","lon":8.952859,"lat":53.070873,"homepage_url":null,"federal_state_code":"HB","fax_number":"+49 421 361","email_address":null,"city":"Bremen"},{"zip_code":"28717","street":"Steinkamp 6","school_type_entity":"Oberschule","school_type":"Oberschule","phone_number":"+49 421 361","old_slug":"28717-oberschule-lesum","official_id":"503","name":"Oberschule Lesum","lon":8.693797,"lat":53.178193,"homepage_url":"http://www.schulverbund-lesum.de","federal_state_code":"HB","fax_number":"+49 421 361","email_address":"503@bildung.bremen.de","city":"Bremen"},{"zip_code":"28205","street":"Hemelinger Str. 11","school_type_entity":"Oberschule","school_type":"Oberschule","phone_number":"+49 421 361","old_slug":"28205-gesamtschule-mitte","official_id":"504","name":"Gesamtschule Bremen-Mitte","lon":8.839586,"lat":53.071214,"homepage_url":"http://www.gsm-bremen.de","federal_state_code":"HB","fax_number":"+49 421 361","email_address":"verwaltung@gsm-bremen.de","city":"Bremen"},{"zip_code":"28259","street":"Hermannsburg 32 F","school_type_entity":"Oberschule","school_type":"Oberschule","phone_number":"+49 421 361","old_slug":null,"official_id":"505","name":"Oberschule an der Hermannsburg","lon":8.736376,"lat":53.042129,"homepage_url":null,"federal_state_code":"HB","fax_number":"+49 421 361","email_address":null,"city":"Bremen"},{"zip_code":"28199","street":"Schulstr. 24","school_type_entity":"Oberschule","school_type":"Oberschule","phone_number":"+49 421 361","old_slug":null,"official_id":"506","name":"Oberschule am Leibnizplatz","lon":8.7984,"lat":53.070236,"homepage_url":null,"federal_state_code":"HB","fax_number":"+49 421 361","email_address":null,"city":"Bremen"},{"zip_code":"28779","street":"Neuenkirchener Weg 119","school_type_entity":"Oberschule","school_type":"Oberschule","phone_number":"+49 421 361","old_slug":"28779-oberschule-in-den-sandwehen","official_id":"509","name":"Oberschule In den Sandwehen","lon":8.559242,"lat":53.202226,"homepage_url":"http://www.sandwehen.de/","federal_state_code":"HB","fax_number":"+49 421 361","email_address":"509@bildung.bremen.de","city":"Bremen"},{"zip_code":"28357","street":"Bergiusstr. 125","school_type_entity":"Oberschule","school_type":"Oberschule","phone_number":"+49 421 361","old_slug":null,"official_id":"511","name":"Wilhelm-Focke-Oberschule","lon":8.897261,"lat":53.109939,"homepage_url":null,"federal_state_code":"HB","fax_number":"+49 421 361","email_address":null,"city":"Bremen"},{"zip_code":"28757","street":"Kirchheide 9","school_type_entity":"Oberschule","school_type":"Oberschule","phone_number":"+49 421 361","old_slug":null,"official_id":"512","name":"Gerhard-Rohlfs-Oberschule","lon":8.620902,"lat":53.172983,"homepage_url":null,"federal_state_code":"HB","fax_number":"+49 421 361","email_address":null,"city":"Bremen"},{"zip_code":"27578","street":"Hans-Böckler-Str. 30","school_type_entity":"Oberschule","school_type":"Oberschule","phone_number":"+49 471 391","old_slug":"27578-heinrich-heine-schule","official_id":"551","name":"Heinrich-Heine-Schule","lon":8.615071,"lat":53.587959,"homepage_url":"http://www.heinrich-heine-gesamtschule.de/","federal_state_code":"HB","fax_number":"+49 471 391","email_address":"hhs-bhv@gmx.de","city":"Bremerhaven"},{"zip_code":"27576","street":"Hafenstr. 122","school_type_entity":"Oberschule","school_type":"Oberschule","phone_number":"+49 471 309493","old_slug":null,"official_id":"552","name":"Schule am Ernst-Reuter-Platz","lon":8.586674,"lat":53.557631,"homepage_url":null,"federal_state_code":"HB","fax_number":"+49 471 309493","email_address":null,"city":"Bremerhaven"},{"zip_code":"27570","street":"Flensburger Str. 10","school_type_entity":"Oberschule","school_type":"Oberschule","phone_number":"+49 471 309","old_slug":null,"official_id":"553","name":"Oberschule Geestemünde","lon":8.595368,"lat":53.52374,"homepage_url":null,"federal_state_code":"HB","fax_number":"+49 471 309","email_address":null,"city":"Bremerhaven"},{"zip_code":"28719","street":"Alwin-Lonke-Str. 71","school_type_entity":"Berufsbildende Schule","school_type":"Berufsbildende Schule","phone_number":"+49 421 361","old_slug":null,"official_id":"601","name":"Schulzentrum des Sekundarbereichs II","lon":8.716446,"lat":53.153143,"homepage_url":null,"federal_state_code":"HB","fax_number":"+49 421 361","email_address":null,"city":"Bremen"},{"zip_code":"28717","street":"Bördestr. 10","school_type_entity":"Berufsbildende Schule","school_type":"Berufsbildende Schule","phone_number":"+49 421 361","old_slug":null,"official_id":"602","name":"Schulzentrum des Sekundarbereichs II","lon":8.691515,"lat":53.172909,"homepage_url":null,"federal_state_code":"HB","fax_number":"+49 421 361","email_address":null,"city":"Bremen"},{"zip_code":"28779","street":"Eggestedter Str. 20","school_type_entity":"Berufsbildende Schule","school_type":"Berufsbildende Schule","phone_number":"+49 421 361","old_slug":null,"official_id":"603","name":"Schulzentrum des Sekundarbereichs II","lon":8.566084,"lat":53.190144,"homepage_url":null,"federal_state_code":"HB","fax_number":"+49 421 361","email_address":null,"city":"Bremen"},{"zip_code":"28219","street":"Lange Reihe 81","school_type_entity":"Berufsbildende Schule","school_type":"Berufsbildende Schule","phone_number":"+49 421 361","old_slug":null,"official_id":"618","name":"Schulzentrum des Sekundarbereichs II","lon":8.776595,"lat":53.104501,"homepage_url":null,"federal_state_code":"HB","fax_number":"+49 421 361","email_address":null,"city":"Bremen"},{"zip_code":"28325","street":"Walliser Str. 125","school_type_entity":"Berufsbildende Schule","school_type":"Berufsbildende Schule","phone_number":"+49 421 361","old_slug":null,"official_id":"698","name":"Helmut Schmidt Schule","lon":8.952859,"lat":53.070873,"homepage_url":null,"federal_state_code":"HB","fax_number":"+49 421 361","email_address":null,"city":"Bremen"},{"zip_code":"28219","street":"Rübekamp 37-39","school_type_entity":"Berufsbildende Schule","school_type":"Berufsbildende Schule","phone_number":"+49 421 361","old_slug":null,"official_id":"699","name":"Schulzentrum des Sekundarbereichs II","lon":8.777963,"lat":53.109674,"homepage_url":null,"federal_state_code":"HB","fax_number":"+49 421 361","email_address":null,"city":"Bremen"},{"zip_code":"28195","street":"Tiefer 12","school_type_entity":"Private Grundschule","school_type":"Private Grundschule","phone_number":"+49 421 3694","old_slug":null,"official_id":"801","name":"St.-Johannis-Schule","lon":8.807241,"lat":53.073202,"homepage_url":null,"federal_state_code":"HB","fax_number":"+49 421 3694","email_address":null,"city":"Bremen"},{"zip_code":"28217","street":"Hauffstr. 2","school_type_entity":"Private Grundschule","school_type":"Private Grundschule","phone_number":"+49 421 3809370","old_slug":null,"official_id":"803","name":"St.-Marien-Schule","lon":8.786098,"lat":53.093806,"homepage_url":null,"federal_state_code":"HB","fax_number":"+49 421 3989019","email_address":null,"city":"Bremen"},{"zip_code":"28279","street":"Habenhauser Brückenstr. 1","school_type_entity":"Private weiterführende Schule (GS oder IHR mit Gy)","school_type":"Private weiterführende Schule (GS oder IHR mit Gy)","phone_number":"+49 421 83936","old_slug":null,"official_id":"805","name":"Freie Evangelische Bekenntnisschule","lon":8.847751,"lat":53.051127,"homepage_url":null,"federal_state_code":"HB","fax_number":"+49 421 83936","email_address":null,"city":"Bremen"},{"zip_code":"28211","street":"Touler Str. 3","school_type_entity":"Waldorfschule","school_type":"Private Waldorfschule","phone_number":"+49 421 491430","old_slug":null,"official_id":"806","name":"Freie Waldorfschule Bremen","lon":8.844277,"lat":53.082567,"homepage_url":null,"federal_state_code":"HB","fax_number":"+49 421 4914343","email_address":null,"city":"Bremen"},{"zip_code":"28239","street":"Schwarzer Weg 96","school_type_entity":"Private weiterführende Schule (GS oder IHR mit Gy)","school_type":"Private weiterführende Schule (GS oder IHR mit Gy)","phone_number":"+49 421 6190","old_slug":null,"official_id":"807","name":"Privatschule Mentor gGmbH","lon":8.7563,"lat":53.127314,"homepage_url":null,"federal_state_code":"HB","fax_number":"+49 421 6190","email_address":null,"city":"Bremen"},{"zip_code":"28355","street":"Rockwinkeler Landstr. 41-43","school_type_entity":"Private Sonderschule Lernen-Sprache-Verhalten","school_type":"Private Sonderschule Lernen-Sprache-Verhalten","phone_number":"+49 421 259884","old_slug":null,"official_id":"809","name":"Tobias-Schule Bremen","lon":8.934888,"lat":53.083723,"homepage_url":null,"federal_state_code":"HB","fax_number":"+49 421 250627","email_address":null,"city":"Bremen"},{"zip_code":"28195","street":"Dechanatstr. 9","school_type_entity":"Private weiterführende Schule (GS oder IHR mit Gy)","school_type":"Private weiterführende Schule (GS oder IHR mit Gy)","phone_number":"+49 421 3694","old_slug":null,"official_id":"810","name":"St.-Johannis-Schule","lon":8.808928,"lat":53.073999,"homepage_url":null,"federal_state_code":"HB","fax_number":"+49 421 3694","email_address":null,"city":"Bremen"},{"zip_code":"28355","street":"Oberneulander Landstr. 143 A","school_type_entity":"Privates Durchgängiges Gymnasium","school_type":"Privates Durchgängiges Gymnasium","phone_number":"+49 421 223129","old_slug":null,"official_id":"811","name":"Ökumenisches Gymnasium zu Bremen","lon":8.923963,"lat":53.102133,"homepage_url":null,"federal_state_code":"HB","fax_number":"+49 421 223129","email_address":null,"city":"Bremen"},{"zip_code":"28219","street":"Schongauer Str. 2","school_type_entity":"Private berufsbildende Schule","school_type":"Private berufsbildende Schule","phone_number":"+49 421 393089","old_slug":null,"official_id":"812","name":"Technikerschule Bremen","lon":8.798714,"lat":53.108133,"homepage_url":null,"federal_state_code":"HB","fax_number":"+49 421 3965608","email_address":null,"city":"Bremen"},{"zip_code":"28359","street":"Universitätsallee 20","school_type_entity":"Private berufsbildende Schule","school_type":"Private berufsbildende Schule","phone_number":"+49 421 2383","old_slug":null,"official_id":"813","name":"Berufsbildungswerk Bremen GmbH","lon":8.860383,"lat":53.101984,"homepage_url":null,"federal_state_code":"HB","fax_number":"+49 421 2383","email_address":null,"city":"Bremen"},{"zip_code":"28359","street":"Badgasteiner Str. 11","school_type_entity":"Private weiterführende Schule (GS oder IHR mit Gy)","school_type":"Private weiterführende Schule (GS oder IHR mit Gy)","phone_number":"+49 421 515779","old_slug":null,"official_id":"815","name":"International School of Bremen","lon":8.8581,"lat":53.108846,"homepage_url":null,"federal_state_code":"HB","fax_number":"+49 421 515779","email_address":null,"city":"Bremen"},{"zip_code":"28325","street":"Graubündener Str. 4","school_type_entity":"Waldorfschule","school_type":"Private Waldorfschule","phone_number":"+49 421 411441","old_slug":null,"official_id":"816","name":"Freie Waldorfschule","lon":8.943102,"lat":53.067867,"homepage_url":null,"federal_state_code":"HB","fax_number":"+49 421 411421","email_address":null,"city":"Bremen"},{"zip_code":"28279","street":"Steinsetzerstr. 6-8","school_type_entity":"Private Grundschule","school_type":"Private Grundschule","phone_number":"+49 421 83936","old_slug":null,"official_id":"817","name":"Freie Evangelische Bekenntnisschule","lon":8.852438,"lat":53.047652,"homepage_url":null,"federal_state_code":"HB","fax_number":"+49 421 83936","email_address":null,"city":"Bremen"},{"zip_code":"28779","street":"Fresenbergstr. 26","school_type_entity":"Waldorfschule","school_type":"Private Waldorfschule","phone_number":"+49 421 4605210","old_slug":null,"official_id":"818","name":"Freie Waldorfschule","lon":8.574732,"lat":53.183949,"homepage_url":null,"federal_state_code":"HB","fax_number":"+49 421 4605211","email_address":null,"city":"Bremen"},{"zip_code":"28219","street":"Waller Heerstr. 165","school_type_entity":"Private berufsbildende Schule","school_type":"Private berufsbildende Schule","phone_number":"+49 421 377","old_slug":null,"official_id":"819","name":"EUMAC-European Musical Academy","lon":8.784701,"lat":53.103576,"homepage_url":null,"federal_state_code":"HB","fax_number":"+49 421 377","email_address":null,"city":"Bremen"},{"zip_code":"28717","street":"Lesumer Heerstr. 36","school_type_entity":"Privates Durchgängiges Gymnasium","school_type":"Privates Durchgängiges Gymnasium","phone_number":"+49 421 63819902","old_slug":null,"official_id":"820","name":"Eduard-Nebelthau-Gymnasium","lon":8.677933,"lat":53.173646,"homepage_url":null,"federal_state_code":"HB","fax_number":"+49 421 63819988","email_address":null,"city":"Bremen"},{"zip_code":"28259","street":"Willakedamm 6","school_type_entity":"Private Grundschule","school_type":"Private Grundschule","phone_number":"+49 421 583877","old_slug":null,"official_id":"821","name":"St.-Pius-Schule","lon":8.736706,"lat":53.047101,"homepage_url":null,"federal_state_code":"HB","fax_number":"+49 421 583877","email_address":null,"city":"Bremen"},{"zip_code":"28325","street":"Oewerweg 40 A","school_type_entity":"Private Grundschule","school_type":"Private Grundschule","phone_number":"+49 421 424299","old_slug":null,"official_id":"822","name":"St.-Antonius-Schule","lon":8.944771,"lat":53.059891,"homepage_url":null,"federal_state_code":"HB","fax_number":"+49 421 null","email_address":null,"city":"Bremen"},{"zip_code":"28203","street":"Außer der Schleifmühle 4","school_type_entity":"Private berufsbildende Schule","school_type":"Private berufsbildende Schule","phone_number":"+49 421 336","old_slug":null,"official_id":"824","name":"Kunstschule Wandsbek","lon":8.820319,"lat":53.080335,"homepage_url":null,"federal_state_code":"HB","fax_number":"+49 421 null","email_address":null,"city":"Bremen"},{"zip_code":"28309","street":"Zum Sebaldsbrücker Bahnhof 59","school_type_entity":"Private weiterführende Schule (GS oder IHR mit Gy)","school_type":"Private weiterführende Schule (GS oder IHR mit Gy)","phone_number":"+49 421 699","old_slug":null,"official_id":"825","name":"Freie Gemeinschaftsschule Bremen","lon":8.885844,"lat":53.061757,"homepage_url":null,"federal_state_code":"HB","fax_number":"+49 421 699","email_address":null,"city":"Bremen"},{"zip_code":"27568","street":"Grazer Str. 15 A","school_type_entity":"Private weiterführende Schule (GS oder IHR mit Gy)","school_type":"Private weiterführende Schule (GS oder IHR mit Gy)","phone_number":"+49 471 30859","old_slug":null,"official_id":"851","name":"Edith-Stein-Schule","lon":8.577641,"lat":53.546487,"homepage_url":null,"federal_state_code":"HB","fax_number":"+49 471 30859","email_address":null,"city":"Bremerhaven"},{"zip_code":"27568","street":"Grazer Str. 15 B","school_type_entity":"Private Grundschule","school_type":"Private Grundschule","phone_number":"+49 471 30859","old_slug":null,"official_id":"855","name":"Grundschule Stella Maris","lon":8.577641,"lat":53.546487,"homepage_url":null,"federal_state_code":"HB","fax_number":"+49 471 30859","email_address":null,"city":"Bremerhaven"},{"zip_code":"27576","street":"Hafenstr.128","school_type_entity":"Private berufsbildende Schule","school_type":"Private berufsbildende Schule","phone_number":"+49 471 595","old_slug":null,"official_id":"881","name":"Wirtschaft-und Sozialakademie der","lon":8.59992,"lat":53.5662,"homepage_url":null,"federal_state_code":"HB","fax_number":"+49 471 595","email_address":null,"city":"Bremerhaven"},{"zip_code":"28325","street":"Züricher Str. 40","school_type_entity":"Schule für Gesundheitsfachberufe","school_type":"Schule für Gesundheitsfachberufe (Klinikum)","phone_number":"+49 421 408","old_slug":null,"official_id":"900","name":"Integratives Bildungszentrum (IBZ)","lon":8.940238,"lat":53.06446,"homepage_url":null,"federal_state_code":"HB","fax_number":"+49 421 408","email_address":null,"city":"Bremen"},{"zip_code":"28205","street":"St.-Jürgen-Str. 1","school_type_entity":"Schule für Gesundheitsfachberufe","school_type":"Schule für Gesundheitsfachberufe (Klinikum)","phone_number":"+49 421 497","old_slug":null,"official_id":"902","name":"Integratives Bildungszentrum (IBZ)","lon":8.837428,"lat":53.075099,"homepage_url":null,"federal_state_code":"HB","fax_number":"+49 421 497","email_address":null,"city":"Bremen"},{"zip_code":"28205","street":"St.-Jürgen-Str. 1","school_type_entity":"Schule für Gesundheitsfachberufe","school_type":"Schule für Gesundheitsfachberufe (Klinikum)","phone_number":"+49 421 497","old_slug":null,"official_id":"908","name":"Schule für technische Assistenten in der Medizin","lon":8.837428,"lat":53.075099,"homepage_url":null,"federal_state_code":"HB","fax_number":"+49 421 497","email_address":null,"city":"Bremen"},{"zip_code":"28203","street":"Fedelhören 78","school_type_entity":"Private berufsbildende Schule","school_type":"Private berufsbildende Schule","phone_number":"+49 421 2434","old_slug":null,"official_id":"909","name":"Bremer Heimstiftung","lon":8.819148,"lat":53.07821,"homepage_url":null,"federal_state_code":"HB","fax_number":"+49 421 2434","email_address":null,"city":"Bremen"},{"zip_code":"28717","street":"Rotdornallee 64","school_type_entity":"Private berufsbildende Schule","school_type":"Private berufsbildende Schule","phone_number":"+49 421 6381","old_slug":null,"official_id":"910","name":"Friedehorst - Vereinigte Anstalten","lon":8.685082,"lat":53.17678,"homepage_url":null,"federal_state_code":"HB","fax_number":"+49 421 6381","email_address":null,"city":"Bremen"},{"zip_code":"28359","street":"Universitätsallee 18","school_type_entity":"Private berufsbildende Schule","school_type":"Private berufsbildende Schule","phone_number":"+49 421 9499","old_slug":null,"official_id":"912","name":"Deutsche Außenhandels-","lon":8.857939,"lat":53.102903,"homepage_url":null,"federal_state_code":"HB","fax_number":"+49 421 325456","email_address":null,"city":"Bremen"},{"zip_code":"28259","street":"Norderoog 2","school_type_entity":"Private berufsbildende Schule","school_type":"Private berufsbildende Schule","phone_number":"+49 421 720240","old_slug":null,"official_id":"913","name":"Joli Visage","lon":8.742194,"lat":53.053882,"homepage_url":null,"federal_state_code":"HB","fax_number":"+49 421 7202439","email_address":null,"city":"Bremen"},{"zip_code":"28207","street":"Bertha-von-Suttner-Str. 17","school_type_entity":"Private berufsbildende Schule","school_type":"Private berufsbildende Schule","phone_number":"+49 421 4499639","old_slug":null,"official_id":"914","name":"Wirtschafts- und Sozialakademie der","lon":8.863466,"lat":53.069684,"homepage_url":null,"federal_state_code":"HB","fax_number":"+49 421 4499651","email_address":null,"city":"Bremen"},{"zip_code":"28309","street":"An der Silberpräge 5","school_type_entity":"Private berufsbildende Schule","school_type":"Private berufsbildende Schule","phone_number":"+49 421 39001","old_slug":null,"official_id":"919","name":"Institut für Berufs-","lon":8.886262,"lat":53.059222,"homepage_url":null,"federal_state_code":"HB","fax_number":"+49 421 39001","email_address":null,"city":"Bremen"},{"zip_code":"28195","street":"Faulenstr. 31","school_type_entity":"Private berufsbildende Schule","school_type":"Private berufsbildende Schule","phone_number":"+49 421 17472","old_slug":null,"official_id":"922","name":"Parität. Bildungswerk Bremen e.V.","lon":8.797992,"lat":53.080436,"homepage_url":null,"federal_state_code":"HB","fax_number":"+49 421 17472","email_address":null,"city":"Bremen"},{"zip_code":"28207","street":"Fleetrade 78","school_type_entity":"Private berufsbildende Schule","school_type":"Private berufsbildende Schule","phone_number":"+49 421 441999","old_slug":null,"official_id":"923","name":"impuls e.V.","lon":8.865509,"lat":53.064309,"homepage_url":null,"federal_state_code":"HB","fax_number":"+49 421 4986048","email_address":null,"city":"Bremen"},{"zip_code":"28207","street":"Dölvesstr. 8","school_type_entity":"Private berufsbildende Schule","school_type":"Private berufsbildende Schule","phone_number":"+49 421 4499621","old_slug":null,"official_id":"924","name":"Wirtschafts- und Sozialakademie der","lon":8.859384,"lat":53.070167,"homepage_url":null,"federal_state_code":"HB","fax_number":"+49 421 4499930","email_address":null,"city":"Bremen"},{"zip_code":"28199","street":"St.-Pauli-Deich 25","school_type_entity":"Schule für Gesundheitsfachberufe","school_type":"Schule für Gesundheitsfachberufe","phone_number":"+49 421 5599","old_slug":null,"official_id":"927","name":"Bremer Krankenpflegeschule der","lon":8.804042,"lat":53.068795,"homepage_url":null,"federal_state_code":"HB","fax_number":"+49 421 5599","email_address":null,"city":"Bremen"},{"zip_code":"28717","street":"Rotdornallee 64","school_type_entity":"Schule für Gesundheitsfachberufe","school_type":"Schule für Gesundheitsfachberufe","phone_number":"+49 421 696","old_slug":null,"official_id":"928","name":"Fachschule für Ergotherapie","lon":8.685082,"lat":53.17678,"homepage_url":null,"federal_state_code":"HB","fax_number":"+49 421 696","email_address":null,"city":"Bremen"},{"zip_code":"28195","street":"Doventorscontrescarpe 172","school_type_entity":"Verwaltungsschule","school_type":"Verwaltungsschule","phone_number":"+49 421 361","old_slug":"28195-erwachsenenschule","official_id":"949","name":"Verwaltungsschule der","lon":8.797686,"lat":53.084162,"homepage_url":"http://erwachsenenschule.de/","federal_state_code":"HB","fax_number":"+49 421 361","email_address":"ews@uni-bremen.de","city":"Bremen"},{"zip_code":"27574","street":"Postbrookstr. 91 A","school_type_entity":"Schule für Gesundheitsfachberufe","school_type":"Schule für Gesundheitsfachberufe (Klinikum)","phone_number":"+49 471 299","old_slug":null,"official_id":"950","name":"Krankenpflegeschule am","lon":8.637051,"lat":53.53486,"homepage_url":null,"federal_state_code":"HB","fax_number":"+49 471 299","email_address":null,"city":"Bremerhaven"},{"zip_code":"27568","street":"Wiener Str. 1","school_type_entity":"Schule für Gesundheitsfachberufe","school_type":"Schule für Gesundheitsfachberufe","phone_number":"+49 471 4805","old_slug":null,"official_id":"951","name":"Krankenpflegeschule","lon":8.575928,"lat":53.552553,"homepage_url":null,"federal_state_code":"HB","fax_number":"+49 471 4805","email_address":null,"city":"Bremerhaven"},{"zip_code":"27574","street":"Hartwigstr. 8","school_type_entity":"Private berufsbildende Schule","school_type":"Private berufsbildende Schule","phone_number":"+49 471 9212370","old_slug":null,"official_id":"955","name":"Hansa Pflegeschulen GmbH","lon":8.601181,"lat":53.533075,"homepage_url":null,"federal_state_code":"HB","fax_number":"+49 471 9212372","email_address":null,"city":"Bremerhaven"},{"zip_code":"27576","street":"Surfeldstr. 29","school_type_entity":"Private berufsbildende Schule","school_type":"Private berufsbildende Schule","phone_number":"+49 471 9547","old_slug":null,"official_id":"957","name":"AWO Pflegedienst GmbH -Ursula Kaltenstein Akademie für Gesundheit und Pflege","lon":8.597506,"lat":53.561813,"homepage_url":null,"federal_state_code":"HB","fax_number":"+49 471 309467","email_address":null,"city":"Bremerhaven"}]